$GNRMC,143553.00,A,4228.21306,S,07503.88452,W,0.316,,231218,,,A*63
$GNRMC,143553.00,A,4228.21306,S,07503.88452,E,0.316,,231218,,,A*71
$GNRMC,143553.00,A,4228.21306,N,07503.88452,E,0.316,,231218,,,A*6C
$GNRMC,143541.00,A,4228.21353,N,07503.88667,W,1.196,,231218,,,A*72
$GNRMC,143542.00,A,4228.21239,N,07503.88624,W,0.249,,231218,,,A*7B
$GNRMC,143543.00,A,4228.21282,N,07503.88480,W,0.112,,231218,,,A*7B
$GNRMC,143544.00,A,4228.21286,N,07503.88441,W,0.105,,231218,,,A*73
$GNRMC,143545.00,A,4228.21303,N,07503.88460,W,0.154,,231218,,,A*79
$GNRMC,143546.00,A,4228.21301,N,07503.88461,W,0.076,,231218,,,A*78
$GNRMC,143547.00,A,4228.21300,N,07503.88469,W,0.084,,231218,,,A*7D
$GNRMC,143548.00,A,4228.21301,N,07503.88471,W,0.114,,231218,,,A*72
$GNRMC,143549.00,A,4228.21298,N,07503.88467,W,0.022,,231218,,,A*71
$GNRMC,143550.00,A,4228.21301,N,07503.88463,W,0.015,,231218,,,A*78
$GNRMC,143551.00,A,4228.21302,N,07503.88455,W,0.233,,231218,,,A*79
$GNRMC,143552.00,A,4228.21304,N,07503.88457,W,0.366,,231218,,,A*7F
$GNRMC,143553.00,A,4228.21306,N,07503.88452,W,0.316,,231218,,,A*7E
$GNRMC,143554.00,A,4228.21317,N,07503.88439,W,0.438,,231218,,,A*7F
$GNRMC,143555.00,A,4228.21313,N,07503.88439,W,0.342,,231218,,,A*70
$GNRMC,143556.00,A,4228.21312,N,07503.88438,W,0.303,,231218,,,A*76
$GNRMC,143557.00,A,4228.21299,N,07503.88446,W,0.451,,231218,,,A*7C
$GNRMC,143558.00,A,4228.21291,N,07503.88453,W,0.376,,231218,,,A*7D
$GNRMC,143559.00,A,4228.21284,N,07503.88464,W,0.449,,231218,,,A*77
$GNRMC,143600.00,A,4228.21278,N,07503.88467,W,0.330,,231218,,,A*71
$GNRMC,143601.00,A,4228.21268,N,07503.88475,W,0.436,,231218,,,A*73
$GNRMC,143602.00,A,4228.21263,N,07503.88477,W,0.273,,231218,,,A*7E
$GNRMC,143603.00,A,4228.21257,N,07503.88481,W,0.174,,231218,,,A*75
$GNRMC,143604.00,A,4228.21245,N,07503.88491,W,0.178,,231218,,,A*7C
$GNRMC,143605.00,A,4228.21244,N,07503.88496,W,0.215,,231218,,,A*73
$GNRMC,143606.00,A,4228.21250,N,07503.88507,W,0.215,,231218,,,A*7C
$GNRMC,143607.00,A,4228.21252,N,07503.88514,W,0.139,,231218,,,A*70
$GNRMC,143608.00,A,4228.21254,N,07503.88513,W,0.020,,231218,,,A*77
$GNRMC,143609.00,A,4228.21255,N,07503.88514,W,0.015,,231218,,,A*76
$GNRMC,143610.00,A,4228.21261,N,07503.88511,W,0.175,,231218,,,A*7B
$GNRMC,143611.00,A,4228.21261,N,07503.88509,W,0.124,,231218,,,A*77
$GNRMC,143611.00,A,4228.21260,N,07503.88509,W,0.045,,231218,,,A*70
$GNRMC,143612.00,A,4228.21259,N,07503.88510,W,0.141,,231218,,,A*74
$GNRMC,143613.00,A,4228.21262,N,07503.88506,W,0.051,,231218,,,A*7A
$GNRMC,143614.00,A,4228.21264,N,07503.88503,W,0.038,,231218,,,A*71
$GNRMC,143615.00,A,4228.21259,N,07503.88504,W,0.085,,231218,,,A*7F
$GNRMC,143616.00,A,4228.21259,N,07503.88510,W,0.067,,231218,,,A*75
$GNRMC,143617.00,A,4228.21258,N,07503.88512,W,0.104,,231218,,,A*73
$GNRMC,143618.00,A,4228.21258,N,07503.88513,W,0.111,,231218,,,A*79
$GNRMC,143619.00,A,4228.21282,N,07503.88490,W,0.028,,231218,,,A*7E
$GNRMC,143620.00,A,4228.21302,N,07503.88473,W,0.209,,231218,,,A*71
$GNRMC,143621.00,A,4228.21312,N,07503.88467,W,0.348,,231218,,,A*70
$GNRMC,143622.00,A,4228.21315,N,07503.88462,W,0.335,,231218,,,A*7B
$GNRMC,143623.00,A,4228.21319,N,07503.88457,W,0.042,,231218,,,A*73
$GNRMC,143624.00,A,4228.21327,N,07503.88456,W,0.087,,231218,,,A*71
$GNRMC,143625.00,A,4228.21332,N,07503.88459,W,0.173,,231218,,,A*71
$GNRMC,143626.00,A,4228.21336,N,07503.88461,W,0.070,,231218,,,A*7F
$GNRMC,143627.00,A,4228.21341,N,07503.88462,W,0.122,,231218,,,A*7B
$GNRMC,143628.00,A,4228.21344,N,07503.88464,W,0.247,,231218,,,A*77
$GNRMC,143629.00,A,4228.21343,N,07503.88460,W,0.388,,231218,,,A*77
$GNRMC,143630.00,A,4228.21341,N,07503.88458,W,0.078,,231218,,,A*7A
$GNRMC,143631.00,A,4228.21339,N,07503.88457,W,0.055,,231218,,,A*74
$GNRMC,143632.00,A,4228.21342,N,07503.88456,W,0.102,,231218,,,A*79
$GNRMC,143633.00,A,4228.21343,N,07503.88453,W,0.034,,231218,,,A*78
$GNRMC,143634.00,A,4228.21343,N,07503.88451,W,0.040,,231218,,,A*7E
$GNRMC,143635.00,A,4228.21343,N,07503.88445,W,0.028,,231218,,,A*74
$GNRMC,143636.00,A,4228.21342,N,07503.88441,W,0.046,,231218,,,A*7A
$GNRMC,143637.00,A,4228.21346,N,07503.88441,W,0.045,,231218,,,A*7C
$GNRMC,143638.00,A,4228.21348,N,07503.88440,W,0.115,,231218,,,A*78
$GNRMC,143639.00,A,4228.21352,N,07503.88443,W,0.043,,231218,,,A*73
$GNRMC,143640.00,A,4228.21358,N,07503.88446,W,0.029,,231218,,,A*7E
$GNRMC,143641.00,A,4228.21366,N,07503.88450,W,0.049,,231218,,,A*73
$GNRMC,143642.00,A,4228.21374,N,07503.88455,W,0.056,,231218,,,A*78
$GNRMC,143643.00,A,4228.21383,N,07503.88453,W,0.016,,231218,,,A*73
$GNRMC,143644.00,A,4228.21390,N,07503.88454,W,0.036,,231218,,,A*73
$GNRMC,143645.00,A,4228.21394,N,07503.88454,W,0.028,,231218,,,A*79
$GNRMC,143646.00,A,4228.21395,N,07503.88454,W,0.033,,231218,,,A*71
$GNRMC,143647.00,A,4228.21395,N,07503.88451,W,0.090,,231218,,,A*7C
$GNRMC,143648.00,A,4228.21394,N,07503.88446,W,0.094,,231218,,,A*70
$GNRMC,143649.00,A,4228.21392,N,07503.88444,W,0.078,,231218,,,A*77
$GNRMC,143650.00,A,4228.21392,N,07503.88444,W,0.069,,231218,,,D*7A
$GNRMC,143651.00,A,4228.21393,N,07503.88443,W,0.015,,231218,,,D*76
$GNRMC,143652.00,A,4228.21393,N,07503.88442,W,0.070,,231218,,,D*77
$GNRMC,143653.00,A,4228.21394,N,07503.88440,W,0.014,,231218,,,D*71
$GNRMC,143654.00,A,4228.21397,N,07503.88436,W,0.035,,231218,,,D*77
$GNRMC,143655.00,A,4228.21402,N,07503.88434,W,0.037,,231218,,,D*7D
$GNRMC,143656.00,A,4228.21406,N,07503.88425,W,0.010,,231218,,,D*7F
$GNRMC,143657.00,A,4228.21407,N,07503.88411,W,0.046,,231218,,,D*7B
$GNRMC,143658.00,A,4228.21407,N,07503.88401,W,0.008,,231218,,,D*7F
$GNRMC,143659.00,A,4228.21411,N,07503.88396,W,0.026,,231218,,,D*7C
$GNRMC,143700.00,A,4228.21411,N,07503.88388,W,0.021,,231218,,,D*79
$GNRMC,143701.00,A,4228.21412,N,07503.88382,W,0.008,,231218,,,D*7A
$GNRMC,143702.00,A,4228.21414,N,07503.88379,W,0.050,,231218,,,D*76
$GNRMC,143703.00,A,4228.21419,N,07503.88374,W,0.045,,231218,,,D*73
$GNRMC,143704.00,A,4228.21419,N,07503.88368,W,0.013,,231218,,,D*7A
$GNRMC,143705.00,A,4228.21420,N,07503.88363,W,0.027,,231218,,,D*7D
$GNRMC,143706.00,A,4228.21423,N,07503.88362,W,0.016,,231218,,,D*7E
$GNRMC,143707.00,A,4228.21424,N,07503.88358,W,0.031,,231218,,,D*74
$GNRMC,143708.00,A,4228.21424,N,07503.88355,W,0.008,,231218,,,D*7C
$GNRMC,143709.00,A,4228.21426,N,07503.88353,W,0.067,,231218,,,D*70
$GNRMC,143710.00,A,4228.21424,N,07503.88350,W,0.084,,231218,,,D*74
$GNRMC,143711.00,A,4228.21423,N,07503.88347,W,0.068,,231218,,,D*76
$GNRMC,143712.00,A,4228.21422,N,07503.88345,W,0.047,,231218,,,D*7B
$GNRMC,143713.00,A,4228.21415,N,07503.88333,W,0.117,,231218,,,D*7B
$GNRMC,143714.00,A,4228.21414,N,07503.88330,W,0.077,,231218,,,D*79
$GNRMC,143715.00,A,4228.21416,N,07503.88325,W,0.123,,231218,,,D*7E
$GNRMC,143716.00,A,4228.21422,N,07503.88318,W,0.182,,231218,,,D*7F
$GNRMC,143717.00,A,4228.21422,N,07503.88318,W,0.078,,231218,,,D*7A
$GNRMC,143718.00,A,4228.21429,N,07503.88325,W,0.026,,231218,,,D*7B
$GNRMC,143719.00,A,4228.21431,N,07503.88328,W,0.016,,231218,,,D*7D
$GNRMC,143720.00,A,4228.21433,N,07503.88332,W,0.041,,231218,,,D*7C
$GNRMC,143721.00,A,4228.21440,N,07503.88339,W,0.052,,231218,,,D*70
$GNRMC,143722.00,A,4228.21444,N,07503.88342,W,0.036,,231218,,,D*79
$GNRMC,143723.00,A,4228.21446,N,07503.88346,W,0.180,,231218,,,D*72
$GNRMC,143724.00,A,4228.21451,N,07503.88351,W,0.020,,231218,,,D*7E
$GNRMC,143725.00,A,4228.21456,N,07503.88355,W,0.026,,231218,,,D*7A
$GNRMC,143726.00,A,4228.21459,N,07503.88354,W,0.048,,231218,,,D*7F
$GNRMC,143727.00,A,4228.21461,N,07503.88354,W,0.093,,231218,,,D*73
$GNRMC,143728.00,A,4228.21463,N,07503.88354,W,0.070,,231218,,,D*73
$GNRMC,143729.00,A,4228.21465,N,07503.88353,W,0.013,,231218,,,D*76
$GNRMC,143730.00,A,4228.21468,N,07503.88354,W,0.035,,231218,,,D*70
$GNRMC,143731.00,A,4228.21471,N,07503.88361,W,0.020,,231218,,,D*7B
$GNRMC,143732.00,A,4228.21472,N,07503.88363,W,0.115,,231218,,,D*7E
$GNRMC,143733.00,A,4228.21472,N,07503.88363,W,0.030,,231218,,,D*79
$GNRMC,143734.00,A,4228.21474,N,07503.88364,W,0.100,,231218,,,D*7D
$GNRMC,143735.00,A,4228.21476,N,07503.88367,W,0.034,,231218,,,D*7B
$GNRMC,143736.00,A,4228.21476,N,07503.88365,W,0.012,,231218,,,D*7E
$GNRMC,143737.00,A,4228.21474,N,07503.88365,W,0.041,,231218,,,D*7B
$GNRMC,143738.00,A,4228.21474,N,07503.88364,W,0.037,,231218,,,D*74
$GNRMC,143739.00,A,4228.21474,N,07503.88365,W,0.037,,231218,,,D*74
$GNRMC,143740.00,A,4228.21476,N,07503.88366,W,0.034,,231218,,,D*78
$GNRMC,143741.00,A,4228.21480,N,07503.88369,W,0.074,,231218,,,D*7B
$GNRMC,143742.00,A,4228.21482,N,07503.88371,W,0.138,,231218,,,D*7A
$GNRMC,143743.00,A,4228.21482,N,07503.88373,W,0.091,,231218,,,D*7B
$GNRMC,143744.00,A,4228.21485,N,07503.88378,W,0.032,,231218,,,D*79
$GNRMC,143745.00,A,4228.21486,N,07503.88377,W,0.028,,231218,,,D*7F
$GNRMC,143746.00,A,4228.21485,N,07503.88378,W,0.030,,231218,,,D*79
$GNRMC,143747.00,A,4228.21484,N,07503.88379,W,0.016,,231218,,,D*7C
$GNRMC,143748.00,A,4228.21483,N,07503.88379,W,0.013,,231218,,,D*71
$GNRMC,143749.00,A,4228.21482,N,07503.88379,W,0.058,,231218,,,D*7E
$GNRMC,143750.00,A,4228.21479,N,07503.88375,W,0.077,,231218,,,D*73
$GNRMC,143751.00,A,4228.21479,N,07503.88378,W,0.023,,231218,,,D*7E
$GNRMC,143752.00,A,4228.21476,N,07503.88380,W,0.157,,231218,,,D*77
$GNRMC,143753.00,A,4228.21476,N,07503.88380,W,0.017,,231218,,,D*73
$GNRMC,143754.00,A,4228.21477,N,07503.88382,W,0.060,,231218,,,D*77
$GNRMC,143755.00,A,4228.21477,N,07503.88384,W,0.049,,231218,,,D*7B
$GNRMC,143756.00,A,4228.21476,N,07503.88388,W,0.068,,231218,,,D*76
$GNRMC,143757.00,A,4228.21476,N,07503.88390,W,0.015,,231218,,,D*74
$GNRMC,143758.00,A,4228.21477,N,07503.88397,W,0.068,,231218,,,D*77
$GNRMC,143759.00,A,4228.21477,N,07503.88399,W,0.038,,231218,,,D*7D
$GNRMC,143800.00,A,4228.21478,N,07503.88401,W,0.026,,231218,,,D*78
$GNRMC,143801.00,A,4228.21479,N,07503.88403,W,0.066,,231218,,,D*7E
$GNRMC,143802.00,A,4228.21478,N,07503.88400,W,0.108,,231218,,,D*76
$GNRMC,143803.00,A,4228.21476,N,07503.88397,W,0.052,,231218,,,D*7E
$GNRMC,143804.00,A,4228.21477,N,07503.88400,W,0.027,,231218,,,D*73
$GNRMC,143805.00,A,4228.21478,N,07503.88400,W,0.018,,231218,,,D*71
$GNRMC,143806.00,A,4228.21478,N,07503.88403,W,0.012,,231218,,,D*7B
$GNRMC,143807.00,A,4228.21477,N,07503.88401,W,0.057,,231218,,,D*76
$GNRMC,143808.00,A,4228.21477,N,07503.88398,W,0.039,,231218,,,D*76
$GNRMC,143809.00,A,4228.21477,N,07503.88396,W,0.046,,231218,,,D*71
$GNRMC,143810.00,A,4228.21476,N,07503.88399,W,0.065,,231218,,,D*76
$GNRMC,143811.00,A,4228.21474,N,07503.88406,W,0.036,,231218,,,D*72
$GNRMC,143812.00,A,4228.21473,N,07503.88413,W,0.061,,231218,,,D*70
$GNRMC,143813.00,A,4228.21474,N,07503.88424,W,0.052,,231218,,,D*72
$GNRMC,143814.00,A,4228.21473,N,07503.88425,W,0.034,,231218,,,D*73
$GNRMC,143815.00,A,4228.21474,N,07503.88425,W,0.032,,231218,,,D*73
$GNRMC,143816.00,A,4228.21475,N,07503.88423,W,0.012,,231218,,,D*75
$GNRMC,143817.00,A,4228.21476,N,07503.88423,W,0.085,,231218,,,D*79
$GNRMC,143818.00,A,4228.21476,N,07503.88422,W,0.034,,231218,,,D*7D
$GNRMC,143819.00,A,4228.21456,N,07503.88399,W,1.244,123.75,231218,,,D*61
$GNRMC,143820.00,A,4228.21469,N,07503.88385,W,0.987,,231218,,,D*73
$GNRMC,143821.00,A,4228.21481,N,07503.88369,W,0.407,,231218,,,D*73
$GNRMC,143822.00,A,4228.21479,N,07503.88368,W,0.244,,231218,,,D*77
$GNRMC,143823.00,A,4228.21465,N,07503.88384,W,0.326,,231218,,,D*7C
$GNRMC,143824.00,A,4228.21464,N,07503.88389,W,0.120,,231218,,,D*73
$GNRMC,143825.00,A,4228.21457,N,07503.88379,W,0.043,,231218,,,D*79
$GNRMC,143826.00,A,4228.21449,N,07503.88381,W,0.293,,231218,,,D*7D
$GNRMC,143827.00,A,4228.21450,N,07503.88383,W,0.032,,231218,,,D*7F
$GNRMC,143828.00,A,4228.21453,N,07503.88382,W,0.130,,231218,,,D*71
$GNRMC,143829.00,A,4228.21454,N,07503.88383,W,0.050,,231218,,,D*71
$GNRMC,143830.00,A,4228.21453,N,07503.88386,W,0.020,,231218,,,D*7C
$GNRMC,143831.00,A,4228.21456,N,07503.88398,W,0.065,,231218,,,D*76
$GNRMC,143832.00,A,4228.21472,N,07503.88394,W,0.029,,231218,,,D*77
$GNRMC,143833.00,A,4228.21481,N,07503.88397,W,0.342,,231218,,,D*77
$GNRMC,143834.00,A,4228.21482,N,07503.88397,W,0.145,,231218,,,D*76
$GNRMC,143835.00,A,4228.21485,N,07503.88395,W,0.110,,231218,,,A*77
$GNRMC,143836.00,A,4228.21487,N,07503.88392,W,0.203,,231218,,,A*70
$GNRMC,143837.00,A,4228.21480,N,07503.88401,W,0.138,,231218,,,A*70
$GNRMC,143838.00,A,4228.21472,N,07503.88411,W,0.230,,231218,,,A*78
$GNRMC,143839.00,A,4228.21466,N,07503.88412,W,0.389,,231218,,,A*7C
$GNRMC,143840.00,A,4228.21451,N,07503.88421,W,0.080,,231218,,,A*7C
$GNRMC,143841.00,A,4228.21448,N,07503.88422,W,0.104,,231218,,,A*7B
$GNRMC,143842.00,A,4228.21450,N,07503.88424,W,0.166,,231218,,,A*73
$GNRMC,143843.00,A,4228.21437,N,07503.88422,W,0.013,,231218,,,A*76
$GNRMC,143844.00,A,4228.21423,N,07503.88417,W,0.088,,231218,,,A*70
$GNRMC,143845.00,A,4228.21418,N,07503.88421,W,0.103,,231218,,,A*7E
$GNRMC,143846.00,A,4228.21412,N,07503.88423,W,0.079,,231218,,,A*79
$GNRMC,143847.00,A,4228.21409,N,07503.88427,W,0.123,,231218,,,A*78
$GNRMC,143848.00,A,4228.21404,N,07503.88427,W,0.031,,231218,,,A*78
$GNRMC,143849.00,A,4228.21402,N,07503.88428,W,0.067,,231218,,,A*73
$GNRMC,143850.00,A,4228.21404,N,07503.88426,W,0.090,,231218,,,A*7B
$GNRMC,143851.00,A,4228.21401,N,07503.88424,W,0.095,,231218,,,A*78
$GNRMC,143852.00,A,4228.21402,N,07503.88426,W,0.044,,231218,,,A*76
$GNRMC,143853.00,A,4228.21406,N,07503.88429,W,0.115,,231218,,,A*79
$GNRMC,143854.00,A,4228.21410,N,07503.88431,W,0.238,,231218,,,A*7C
$GNRMC,143855.00,A,4228.21407,N,07503.88426,W,0.067,,231218,,,A*75
$GNRMC,143856.00,A,4228.21403,N,07503.88426,W,0.031,,231218,,,A*71
$GNRMC,143857.00,A,4228.21401,N,07503.88423,W,0.087,,231218,,,A*7A
$GNRMC,143858.00,A,4228.21401,N,07503.88421,W,0.028,,231218,,,A*72
$GNRMC,143859.00,A,4228.21411,N,07503.88422,W,0.180,,231218,,,D*77
$GNRMC,143900.00,A,4228.21416,N,07503.88420,W,0.119,,231218,,,D*7F
$GNRMC,143901.00,A,4228.21420,N,07503.88416,W,0.149,,231218,,,D*7B
$GNRMC,143902.00,A,4228.21425,N,07503.88406,W,0.135,,231218,,,D*77
$GNRMC,143903.00,A,4228.21419,N,07503.88396,W,0.138,,231218,,,D*7A
$GNRMC,143904.00,A,4228.21420,N,07503.88396,W,0.225,,231218,,,D*78
$GNRMC,143905.00,A,4228.21422,N,07503.88395,W,0.278,,231218,,,D*70
$GNRMC,143906.00,A,4228.21428,N,07503.88399,W,0.213,,231218,,,D*78
$GNRMC,143907.00,A,4228.21431,N,07503.88400,W,0.157,,231218,,,D*75
$GNRMC,143908.00,A,4228.21431,N,07503.88395,W,0.163,,231218,,,D*76
$GNRMC,143909.00,A,4228.21432,N,07503.88393,W,0.154,,231218,,,D*76
$GNRMC,143910.00,A,4228.21434,N,07503.88390,W,0.134,,231218,,,D*7D
$GNRMC,143911.00,A,4228.21432,N,07503.88388,W,0.084,,231218,,,D*79
$GNRMC,143912.00,A,4228.21428,N,07503.88383,W,0.102,,231218,,,D*75
$GNRMC,143913.00,A,4228.21438,N,07503.88407,W,1.187,235.22,231218,,,D*68
$GNRMC,143914.00,A,4228.21448,N,07503.88495,W,3.108,271.42,231218,,,D*60
$GNRMC,143915.00,A,4228.21429,N,07503.88632,W,4.034,262.57,231218,,,D*66
$GNRMC,143916.00,A,4228.21361,N,07503.88709,W,3.216,249.89,231218,,,D*68
$GNRMC,143917.00,A,4228.21320,N,07503.88772,W,1.887,232.69,231218,,,D*62
$GNRMC,143918.00,A,4228.21312,N,07503.88790,W,0.025,,231218,,,D*73
$GNRMC,143919.00,A,4228.21309,N,07503.88798,W,0.316,,231218,,,D*73
$GNRMC,143920.00,A,4228.21355,N,07503.88811,W,2.264,319.08,231218,,,D*65
$GNRMC,143921.00,A,4228.21501,N,07503.88849,W,6.524,346.12,231218,,,D*68
$GNRMC,143922.00,A,4228.21718,N,07503.88904,W,8.673,347.93,231218,,,D*6E
$GNRMC,143923.00,A,4228.21950,N,07503.88964,W,8.432,348.89,231218,,,D*68
$GNRMC,143924.00,A,4228.22158,N,07503.88990,W,7.229,355.63,231218,,,D*6C
$GNRMC,143925.00,A,4228.22317,N,07503.88952,W,5.550,9.96,231218,,,D*61
$GNRMC,143926.00,A,4228.22432,N,07503.88845,W,5.011,23.05,231218,,,D*57
$GNRMC,143927.00,A,4228.22506,N,07503.88689,W,5.179,43.92,231218,,,D*59
$GNRMC,143928.00,A,4228.22536,N,07503.88523,W,4.377,67.05,231218,,,D*53
$GNRMC,143929.00,A,4228.22555,N,07503.88397,W,2.958,73.15,231218,,,A*5E
$GNRMC,143930.00,A,4228.22571,N,07503.88270,W,3.633,76.04,231218,,,A*5E
$GNRMC,143931.00,A,4228.22624,N,07503.88100,W,5.442,65.43,231218,,,A*5B
$GNRMC,143932.00,A,4228.22757,N,07503.87960,W,6.643,46.31,231218,,,A*58
$GNRMC,143933.00,A,4228.22942,N,07503.87851,W,7.703,21.11,231218,,,A*57
$GNRMC,143934.00,A,4228.23195,N,07503.87804,W,9.536,6.92,231218,,,A*67
$GNRMC,143935.00,A,4228.23493,N,07503.87769,W,11.040,6.36,231218,,,A*52
$GNRMC,143936.00,A,4228.23819,N,07503.87688,W,12.096,12.40,231218,,,A*6D
$GNRMC,143937.00,A,4228.24152,N,07503.87525,W,13.093,21.29,231218,,,A*62
$GNRMC,143938.00,A,4228.24462,N,07503.87296,W,12.598,30.93,231218,,,A*6A
$GNRMC,143939.00,A,4228.24765,N,07503.86997,W,13.757,37.70,231218,,,A*6E
$GNRMC,143940.00,A,4228.25048,N,07503.86638,W,14.063,44.68,231218,,,A*69
$GNRMC,143941.00,A,4228.25300,N,07503.86228,W,14.212,51.92,231218,,,A*67
$GNRMC,143942.00,A,4228.25508,N,07503.85770,W,14.385,60.30,231218,,,A*64
$GNRMC,143943.00,A,4228.25667,N,07503.85267,W,14.621,69.32,231218,,,A*6C
$GNRMC,143944.00,A,4228.25774,N,07503.84730,W,14.861,77.20,231218,,,A*68
$GNRMC,143945.00,A,4228.25840,N,07503.84158,W,15.521,82.11,231218,,,A*69
$GNRMC,143946.00,A,4228.25902,N,07503.83556,W,16.438,82.00,231218,,,A*6A
$GNRMC,143947.00,A,4228.25957,N,07503.82910,W,17.572,82.68,231218,,,A*64
$GNRMC,143948.00,A,4228.26020,N,07503.82245,W,18.114,83.13,231218,,,A*6C
$GNRMC,143949.00,A,4228.26079,N,07503.81559,W,18.382,83.08,231218,,,A*6F
$GNRMC,143950.00,A,4228.26124,N,07503.80870,W,18.078,83.27,231218,,,A*62
$GNRMC,143951.00,A,4228.26184,N,07503.80181,W,18.483,83.28,231218,,,A*61
$GNRMC,143952.00,A,4228.26247,N,07503.79482,W,18.766,83.33,231218,,,A*6C
$GNRMC,143953.00,A,4228.26319,N,07503.78785,W,18.646,82.84,231218,,,A*6C
$GNRMC,143954.00,A,4228.26374,N,07503.78099,W,17.967,83.86,231218,,,A*6A
$GNRMC,143955.00,A,4228.26390,N,07503.77455,W,16.785,89.49,231218,,,A*60
$GNRMC,143956.00,A,4228.26348,N,07503.76855,W,15.690,97.87,231218,,,A*60
$GNRMC,143957.00,A,4228.26235,N,07503.76300,W,15.441,109.10,231218,,,A*57
$GNRMC,143958.00,A,4228.26031,N,07503.75764,W,16.213,119.52,231218,,,A*5E
$GNRMC,143959.00,A,4228.25750,N,07503.75232,W,17.631,127.92,231218,,,A*5E
$GNRMC,144000.00,A,4228.25395,N,07503.74766,W,18.099,139.70,231218,,,A*5C
$GNRMC,144001.00,A,4228.24984,N,07503.74397,W,18.074,150.97,231218,,,A*59
$GNRMC,144002.00,A,4228.24525,N,07503.74070,W,18.563,154.31,231218,,,A*5C
$GNRMC,144003.00,A,4228.24055,N,07503.73762,W,18.625,154.38,231218,,,A*54
$GNRMC,144004.00,A,4228.23588,N,07503.73449,W,18.694,154.41,231218,,,A*5F
$GNRMC,144005.00,A,4228.23138,N,07503.73137,W,17.685,152.39,231218,,,A*5B
$GNRMC,144006.00,A,4228.22743,N,07503.72786,W,16.449,144.29,231218,,,A*5B
$GNRMC,144007.00,A,4228.22417,N,07503.72366,W,16.043,133.52,231218,,,A*50
$GNRMC,144008.00,A,4228.22147,N,07503.71853,W,16.874,121.63,231218,,,A*5C
$GNRMC,144009.00,A,4228.21935,N,07503.71251,W,18.158,113.37,231218,,,A*52
$GNRMC,144010.00,A,4228.21787,N,07503.70576,W,19.056,103.43,231218,,,A*52
$GNRMC,144011.00,A,4228.21726,N,07503.69852,W,19.640,93.65,231218,,,A*66
$GNRMC,144012.00,A,4228.21744,N,07503.69086,W,20.912,86.39,231218,,,A*6F
$GNRMC,144013.00,A,4228.21799,N,07503.68289,W,21.720,84.45,231218,,,A*65
$GNRMC,144014.00,A,4228.21865,N,07503.67450,W,22.611,83.37,231218,,,A*61
$GNRMC,144015.00,A,4228.21943,N,07503.66588,W,23.193,82.18,231218,,,A*60
$GNRMC,144016.00,A,4228.22032,N,07503.65708,W,23.802,81.57,231218,,,A*6F
$GNRMC,144017.00,A,4228.22110,N,07503.64789,W,24.619,84.17,231218,,,A*65
$GNRMC,144018.00,A,4228.22180,N,07503.63860,W,24.603,84.28,231218,,,A*6B
$GNRMC,144019.00,A,4228.22239,N,07503.62949,W,24.184,84.53,231218,,,A*64
$GNRMC,144020.00,A,4228.22301,N,07503.62044,W,24.217,84.35,231218,,,A*69
$GNRMC,144021.00,A,4228.22365,N,07503.61113,W,24.508,83.79,231218,,,A*6C
$GNRMC,144022.00,A,4228.22438,N,07503.60212,W,23.870,82.98,231218,,,A*68
$GNRMC,144023.00,A,4228.22526,N,07503.59375,W,21.841,80.93,231218,,,A*64
$GNRMC,144024.00,A,4228.22629,N,07503.58563,W,21.775,78.93,231218,,,A*60
$GNRMC,144025.00,A,4228.22747,N,07503.57747,W,22.125,78.04,231218,,,A*6D
$GNRMC,144026.00,A,4228.22890,N,07503.56931,W,22.371,75.63,231218,,,A*6A
$GNRMC,144027.00,A,4228.23059,N,07503.56105,W,22.880,74.79,231218,,,A*67
$GNRMC,144028.00,A,4228.23227,N,07503.55257,W,23.480,74.66,231218,,,A*67
$GNRMC,144029.00,A,4228.23408,N,07503.54404,W,23.710,73.80,231218,,,A*69
$GNRMC,144030.00,A,4228.23582,N,07503.53546,W,23.840,75.72,231218,,,A*63
$GNRMC,144031.00,A,4228.23762,N,07503.52708,W,22.738,72.74,231218,,,A*67
$GNRMC,144032.00,A,4228.23922,N,07503.51905,W,22.201,76.11,231218,,,A*66
$GNRMC,144033.00,A,4228.24085,N,07503.51082,W,22.897,74.59,231218,,,A*69
$GNRMC,144034.00,A,4228.24263,N,07503.50246,W,22.781,73.53,231218,,,A*6A
$GNRMC,144035.00,A,4228.24427,N,07503.49456,W,21.252,74.13,231218,,,A*69
$GNRMC,144036.00,A,4228.24594,N,07503.48702,W,20.483,72.15,231218,,,A*6B
$GNRMC,144037.00,A,4228.24808,N,07503.48023,W,19.654,64.66,231218,,,A*67
$GNRMC,144038.00,A,4228.25119,N,07503.47372,W,20.936,54.43,231218,,,A*6D
$GNRMC,144039.00,A,4228.25520,N,07503.46776,W,21.475,44.22,231218,,,A*6E
$GNRMC,144040.00,A,4228.25931,N,07503.46222,W,21.016,42.26,231218,,,A*6B
$GNRMC,144041.00,A,4228.26387,N,07503.45656,W,21.829,39.09,231218,,,A*6F
$GNRMC,144042.00,A,4228.26915,N,07503.45121,W,22.849,36.54,231218,,,A*68
$GNRMC,144043.00,A,4228.27431,N,07503.44600,W,22.770,37.39,231218,,,A*69
$GNRMC,144044.00,A,4228.27954,N,07503.44092,W,22.981,35.81,231218,,,A*6C
$GNRMC,144045.00,A,4228.28489,N,07503.43574,W,23.263,35.90,231218,,,A*63
$GNRMC,144046.00,A,4228.29001,N,07503.43050,W,23.120,36.49,231218,,,A*65
$GNRMC,144047.00,A,4228.29547,N,07503.42520,W,23.860,36.14,231218,,,A*65
$GNRMC,144048.00,A,4228.30118,N,07503.41994,W,24.076,35.15,231218,,,A*66
$GNRMC,144049.00,A,4228.30690,N,07503.41461,W,24.736,35.34,231218,,,A*67
$GNRMC,144050.00,A,4228.31293,N,07503.40912,W,25.338,34.93,231218,,,A*66
$GNRMC,144051.00,A,4228.31846,N,07503.40342,W,24.489,39.61,231218,,,A*66
$GNRMC,144052.00,A,4228.32345,N,07503.39730,W,23.660,43.55,231218,,,A*69
$GNRMC,144053.00,A,4228.32805,N,07503.39100,W,22.870,47.71,231218,,,A*6E
$GNRMC,144054.00,A,4228.33227,N,07503.38457,W,22.494,50.07,231218,,,A*65
$GNRMC,144055.00,A,4228.33630,N,07503.37809,W,22.308,51.03,231218,,,A*69
$GNRMC,144056.00,A,4228.34012,N,07503.37161,W,21.532,52.83,231218,,,A*6B
$GNRMC,144057.00,A,4228.34321,N,07503.36512,W,20.725,56.66,231218,,,A*62
$GNRMC,144058.00,A,4228.34648,N,07503.35871,W,20.621,54.85,231218,,,A*66
$GNRMC,144059.00,A,4228.34959,N,07503.35220,W,20.245,58.96,231218,,,A*6E
$GNRMC,144100.00,A,4228.35230,N,07503.34564,W,19.628,63.81,231218,,,A*6B
$GNRMC,144101.00,A,4228.35486,N,07503.33888,W,19.386,71.98,231218,,,A*63
$GNRMC,144102.00,A,4228.35625,N,07503.33192,W,18.805,82.60,231218,,,A*63
$GNRMC,144103.00,A,4228.35635,N,07503.32490,W,18.565,93.18,231218,,,A*61
$GNRMC,144104.00,A,4228.35584,N,07503.31801,W,18.982,103.42,231218,,,A*5A
$GNRMC,144105.00,A,4228.35427,N,07503.31119,W,19.026,108.94,231218,,,A*55
$GNRMC,144106.00,A,4228.35254,N,07503.30437,W,19.422,109.47,231218,,,A*53
$GNRMC,144107.00,A,4228.35072,N,07503.29737,W,19.869,108.86,231218,,,A*50
$GNRMC,144108.00,A,4228.34897,N,07503.29016,W,20.325,108.96,231218,,,A*51
$GNRMC,144109.00,A,4228.34713,N,07503.28294,W,20.426,108.79,231218,,,A*5F
$GNRMC,144110.00,A,4228.34534,N,07503.27621,W,18.292,109.28,231218,,,A*52
$GNRMC,144111.00,A,4228.34378,N,07503.27039,W,15.526,109.77,231218,,,A*5D
$GNRMC,144112.00,A,4228.34247,N,07503.26559,W,12.699,110.42,231218,,,A*5F
$GNRMC,144113.00,A,4228.34132,N,07503.26186,W,9.668,114.88,231218,,,A*6F
$GNRMC,144114.00,A,4228.34040,N,07503.25969,W,5.356,118.34,231218,,,A*69
$GNRMC,144115.00,A,4228.33996,N,07503.25876,W,1.752,118.58,231218,,,A*6C
$GNRMC,144116.00,A,4228.33942,N,07503.25783,W,3.393,129.49,231218,,,A*6A
$GNRMC,144117.00,A,4228.33789,N,07503.25653,W,7.472,148.27,231218,,,A*6D
$GNRMC,144118.00,A,4228.33533,N,07503.25583,W,10.155,172.97,231218,,,A*5B
$GNRMC,144119.00,A,4228.33225,N,07503.25619,W,11.522,188.85,231218,,,A*59
$GNRMC,144120.00,A,4228.32832,N,07503.25743,W,15.729,194.62,231218,,,A*59
$GNRMC,144121.00,A,4228.32321,N,07503.25882,W,19.737,191.75,231218,,,A*53
$GNRMC,144122.00,A,4228.31733,N,07503.26041,W,22.215,191.75,231218,,,A*5D
$GNRMC,144123.00,A,4228.31099,N,07503.26205,W,23.753,191.54,231218,,,A*5C
$GNRMC,144124.00,A,4228.30435,N,07503.26366,W,24.620,190.93,231218,,,A*54
$GNRMC,144125.00,A,4228.29757,N,07503.26531,W,24.667,190.49,231218,,,A*5A
$GNRMC,144126.00,A,4228.29095,N,07503.26717,W,24.159,192.43,231218,,,A*54
$GNRMC,144127.00,A,4228.28425,N,07503.26897,W,24.543,191.64,231218,,,A*55
$GNRMC,144128.00,A,4228.27734,N,07503.27074,W,25.183,190.93,231218,,,A*52
$GNRMC,144129.00,A,4228.27041,N,07503.27254,W,25.128,191.41,231218,,,A*59
$GNRMC,144130.00,A,4228.26372,N,07503.27448,W,24.507,192.17,231218,,,A*50
$GNRMC,144131.00,A,4228.25708,N,07503.27630,W,24.096,191.47,231218,,,A*5D
$GNRMC,144132.00,A,4228.25032,N,07503.27794,W,24.509,190.63,231218,,,A*5B
$GNRMC,144133.00,A,4228.24385,N,07503.28000,W,23.929,193.00,231218,,,A*5E
$GNRMC,144134.00,A,4228.23720,N,07503.28179,W,24.298,190.86,231218,,,A*51
$GNRMC,144135.00,A,4228.23052,N,07503.28336,W,24.114,190.03,231218,,,A*51
$GNRMC,144136.00,A,4228.22371,N,07503.28479,W,24.603,189.24,231218,,,A*51
$GNRMC,144137.00,A,4228.21704,N,07503.28579,W,24.323,184.61,231218,,,A*5F
$GNRMC,144138.00,A,4228.20986,N,07503.28704,W,25.582,189.07,231218,,,A*5C
$GNRMC,144139.00,A,4228.20280,N,07503.28831,W,25.571,186.55,231218,,,A*5D
$GNRMC,144140.00,A,4228.19557,N,07503.28932,W,25.740,186.42,231218,,,A*50
$GNRMC,144141.00,A,4228.18836,N,07503.29039,W,25.586,186.29,231218,,,A*5C
$GNRMC,144142.00,A,4228.18117,N,07503.29150,W,25.515,186.86,231218,,,A*54
$GNRMC,144143.00,A,4228.17383,N,07503.29265,W,26.785,186.88,231218,,,A*56
$GNRMC,144144.00,A,4228.16639,N,07503.29384,W,26.704,186.88,231218,,,A*53
$GNRMC,144145.00,A,4228.15915,N,07503.29501,W,25.743,187.37,231218,,,A*5E
$GNRMC,144146.00,A,4228.15191,N,07503.29628,W,26.537,187.69,231218,,,A*58
$GNRMC,144147.00,A,4228.14456,N,07503.29777,W,26.355,189.36,231218,,,A*5B
$GNRMC,144148.00,A,4228.13740,N,07503.29941,W,25.840,190.88,231218,,,A*5D
$GNRMC,144149.00,A,4228.13050,N,07503.30126,W,25.275,191.80,231218,,,A*5E
$GNRMC,144150.00,A,4228.12364,N,07503.30307,W,24.806,191.02,231218,,,A*57
$GNRMC,144151.00,A,4228.11701,N,07503.30501,W,24.242,192.76,231218,,,A*58
$GNRMC,144152.00,A,4228.11024,N,07503.30735,W,24.965,195.93,231218,,,A*5C
$GNRMC,144153.00,A,4228.10376,N,07503.31015,W,24.142,198.24,231218,,,A*50
$GNRMC,144154.00,A,4228.09737,N,07503.31327,W,23.963,202.03,231218,,,A*55
$GNRMC,144155.00,A,4228.09141,N,07503.31689,W,23.506,205.19,231218,,,A*51
$GNRMC,144156.00,A,4228.08564,N,07503.32119,W,23.751,209.39,231218,,,A*53
$GNRMC,144157.00,A,4228.08007,N,07503.32593,W,23.947,213.87,231218,,,A*53
$GNRMC,144158.00,A,4228.07450,N,07503.33092,W,24.182,215.69,231218,,,A*50
$GNRMC,144159.00,A,4228.06903,N,07503.33615,W,24.262,215.74,231218,,,A*53
$GNRMC,144200.00,A,4228.06355,N,07503.34144,W,24.011,216.19,231218,,,A*5F
$GNRMC,144201.00,A,4228.05815,N,07503.34665,W,23.393,216.71,231218,,,A*56
$GNRMC,144202.00,A,4228.05319,N,07503.35196,W,22.284,220.10,231218,,,A*5C
$GNRMC,144203.00,A,4228.04848,N,07503.35758,W,22.663,225.57,231218,,,A*5C
$GNRMC,144204.00,A,4228.04419,N,07503.36392,W,23.090,230.77,231218,,,A*5F
$GNRMC,144205.00,A,4228.04021,N,07503.37068,W,22.902,232.42,231218,,,A*51
$GNRMC,144206.00,A,4228.03637,N,07503.37745,W,22.760,233.12,231218,,,A*52
$GNRMC,144207.00,A,4228.03242,N,07503.38409,W,22.530,231.59,231218,,,A*5B
$GNRMC,144208.00,A,4228.02814,N,07503.39040,W,22.537,227.05,231218,,,A*5D
$GNRMC,144209.00,A,4228.02353,N,07503.39626,W,22.858,222.61,231218,,,A*51
$GNRMC,144210.00,A,4228.01842,N,07503.40161,W,23.133,217.20,231218,,,A*5D
$GNRMC,144211.00,A,4228.01308,N,07503.40658,W,23.216,214.70,231218,,,A*56
$GNRMC,144212.00,A,4228.00772,N,07503.41157,W,23.413,214.88,231218,,,A*50
$GNRMC,144213.00,A,4228.00241,N,07503.41674,W,23.584,216.34,231218,,,A*58
$GNRMC,144214.00,A,4227.99703,N,07503.42165,W,23.276,213.45,231218,,,A*5E
$GNRMC,144215.00,A,4227.99147,N,07503.42609,W,23.228,209.95,231218,,,A*59
$GNRMC,144216.00,A,4227.98582,N,07503.43025,W,23.293,207.54,231218,,,A*5C
$GNRMC,144217.00,A,4227.97996,N,07503.43363,W,23.242,201.04,231218,,,A*55
$GNRMC,144218.00,A,4227.97368,N,07503.43669,W,24.125,199.15,231218,,,A*59
$GNRMC,144219.00,A,4227.96717,N,07503.43961,W,24.742,196.66,231218,,,A*5E
$GNRMC,144220.00,A,4227.96056,N,07503.44235,W,24.968,196.91,231218,,,A*55
$GNRMC,144221.00,A,4227.95382,N,07503.44512,W,24.949,197.29,231218,,,A*5E
$GNRMC,144222.00,A,4227.94719,N,07503.44792,W,24.666,197.42,231218,,,A*5F
$GNRMC,144223.00,A,4227.94037,N,07503.45059,W,24.384,195.92,231218,,,A*52
$GNRMC,144224.00,A,4227.93389,N,07503.45315,W,24.110,195.54,231218,,,A*5A
$GNRMC,144225.00,A,4227.92743,N,07503.45566,W,24.030,195.82,231218,,,A*52
$GNRMC,144226.00,A,4227.92103,N,07503.45818,W,23.779,196.22,231218,,,A*53
$GNRMC,144227.00,A,4227.91462,N,07503.46074,W,23.506,196.22,231218,,,A*58
$GNRMC,144228.00,A,4227.90850,N,07503.46323,W,23.041,195.14,231218,,,A*5A
$GNRMC,144229.00,A,4227.90230,N,07503.46555,W,22.875,195.94,231218,,,A*56
$GNRMC,144230.00,A,4227.89623,N,07503.46793,W,22.508,196.12,231218,,,A*52
$GNRMC,144231.00,A,4227.89021,N,07503.46987,W,21.915,193.07,231218,,,A*5E
$GNRMC,144232.00,A,4227.88407,N,07503.47086,W,22.009,184.70,231218,,,A*54
$GNRMC,144233.00,A,4227.87781,N,07503.47111,W,22.531,180.59,231218,,,A*59
$GNRMC,144234.00,A,4227.87133,N,07503.47074,W,23.266,176.82,231218,,,A*58
$GNRMC,144235.00,A,4227.86489,N,07503.47017,W,23.474,176.16,231218,,,A*51
$GNRMC,144236.00,A,4227.85823,N,07503.46939,W,24.239,174.87,231218,,,A*5B
$GNRMC,144237.00,A,4227.85135,N,07503.46847,W,24.495,174.80,231218,,,A*5B
$GNRMC,144238.00,A,4227.84462,N,07503.46757,W,24.467,174.21,231218,,,A*5A
$GNRMC,144239.00,A,4227.83793,N,07503.46678,W,24.218,175.38,231218,,,A*5A
$GNRMC,144240.00,A,4227.83121,N,07503.46614,W,24.160,176.23,231218,,,A*54
$GNRMC,144241.00,A,4227.82462,N,07503.46551,W,23.628,175.66,231218,,,A*5A
$GNRMC,144242.00,A,4227.81808,N,07503.46492,W,23.369,176.90,231218,,,A*5E
$GNRMC,144243.00,A,4227.81142,N,07503.46406,W,23.984,174.01,231218,,,A*56
$GNRMC,144244.00,A,4227.80463,N,07503.46284,W,24.624,171.81,231218,,,A*55
$GNRMC,144245.00,A,4227.79778,N,07503.46157,W,25.028,172.48,231218,,,A*5B
$GNRMC,144246.00,A,4227.79072,N,07503.46048,W,25.668,173.88,231218,,,A*55
$GNRMC,144247.00,A,4227.78338,N,07503.45946,W,26.524,174.32,231218,,,A*52
$GNRMC,144248.00,A,4227.77582,N,07503.45840,W,27.226,174.16,231218,,,A*50
$GNRMC,144249.00,A,4227.76828,N,07503.45741,W,26.957,174.96,231218,,,A*57
$GNRMC,144250.00,A,4227.76099,N,07503.45634,W,26.418,173.72,231218,,,A*55
$GNRMC,144251.00,A,4227.75357,N,07503.45534,W,26.620,174.71,231218,,,A*58
$GNRMC,144252.00,A,4227.74631,N,07503.45434,W,25.899,174.18,231218,,,A*5E
$GNRMC,144253.00,A,4227.73899,N,07503.45335,W,26.334,174.59,231218,,,A*58
$GNRMC,144254.00,A,4227.73165,N,07503.45257,W,26.143,176.08,231218,,,A*54
$GNRMC,144255.00,A,4227.72451,N,07503.45198,W,25.403,176.67,231218,,,A*5D
$GNRMC,144256.00,A,4227.71753,N,07503.45131,W,24.731,175.40,231218,,,A*5A
$GNRMC,144257.00,A,4227.71082,N,07503.45045,W,24.110,174.22,231218,,,A*52
$GNRMC,144258.00,A,4227.70457,N,07503.44970,W,21.996,175.19,231218,,,A*54
$GNRMC,144259.00,A,4227.69885,N,07503.44889,W,19.960,173.91,231218,,,A*5D
$GNRMC,144300.00,A,4227.69321,N,07503.44817,W,20.584,175.05,231218,,,A*55
$GNRMC,144301.00,A,4227.68740,N,07503.44743,W,21.244,174.54,231218,,,A*57
$GNRMC,144302.00,A,4227.68126,N,07503.44662,W,22.341,174.53,231218,,,A*50
$GNRMC,144303.00,A,4227.67475,N,07503.44577,W,22.989,174.77,231218,,,A*52
$GNRMC,144304.00,A,4227.66819,N,07503.44501,W,23.219,175.35,231218,,,A*57
$GNRMC,144305.00,A,4227.66156,N,07503.44411,W,23.890,174.18,231218,,,A*51
$GNRMC,144306.00,A,4227.65483,N,07503.44313,W,24.132,174.49,231218,,,A*5B
$GNRMC,144307.00,A,4227.64828,N,07503.44204,W,23.463,173.31,231218,,,A*5F
$GNRMC,144308.00,A,4227.64226,N,07503.44114,W,21.392,174.32,231218,,,A*59
$GNRMC,144309.00,A,4227.63666,N,07503.44029,W,19.929,173.77,231218,,,A*57
$GNRMC,144310.00,A,4227.63166,N,07503.43951,W,17.299,173.55,231218,,,A*57
$GNRMC,144311.00,A,4227.62718,N,07503.43918,W,16.419,179.46,231218,,,A*52
$GNRMC,144312.00,A,4227.62234,N,07503.43860,W,17.205,173.60,231218,,,A*50
$GNRMC,144313.00,A,4227.61768,N,07503.43765,W,17.067,171.05,231218,,,A*53
$GNRMC,144314.00,A,4227.61282,N,07503.43690,W,17.390,175.56,231218,,,A*57
$GNRMC,144315.00,A,4227.60790,N,07503.43629,W,17.318,175.94,231218,,,A*5D
$GNRMC,144316.00,A,4227.60295,N,07503.43565,W,17.535,174.22,231218,,,A*50
$GNRMC,144317.00,A,4227.59826,N,07503.43499,W,16.413,174.11,231218,,,A*5F
$GNRMC,144318.00,A,4227.59459,N,07503.43436,W,11.929,172.64,231218,,,A*56
$GNRMC,144319.00,A,4227.59207,N,07503.43403,W,7.505,174.84,231218,,,A*61
$GNRMC,144320.00,A,4227.59047,N,07503.43386,W,4.674,177.19,231218,,,A*66
$GNRMC,144321.00,A,4227.58939,N,07503.43387,W,3.291,181.33,231218,,,A*6E
$GNRMC,144322.00,A,4227.58800,N,07503.43477,W,5.646,205.55,231218,,,A*69
$GNRMC,144323.00,A,4227.58661,N,07503.43673,W,7.858,226.15,231218,,,A*61
$GNRMC,144324.00,A,4227.58528,N,07503.43973,W,10.472,247.46,231218,,,A*54
$GNRMC,144325.00,A,4227.58444,N,07503.44434,W,13.355,258.33,231218,,,A*5A
$GNRMC,144326.00,A,4227.58383,N,07503.45024,W,16.441,265.41,231218,,,A*5D
$GNRMC,144327.00,A,4227.58334,N,07503.45727,W,19.423,265.72,231218,,,A*5F
$GNRMC,144328.00,A,4227.58283,N,07503.46511,W,21.273,265.26,231218,,,A*50
$GNRMC,144329.00,A,4227.58219,N,07503.47336,W,22.155,264.30,231218,,,A*52
$GNRMC,144330.00,A,4227.58151,N,07503.48173,W,22.316,264.29,231218,,,A*54
$GNRMC,144331.00,A,4227.58081,N,07503.49012,W,22.356,264.76,231218,,,A*50
$GNRMC,144332.00,A,4227.58011,N,07503.49837,W,21.892,264.73,231218,,,A*50
$GNRMC,144333.00,A,4227.57947,N,07503.50630,W,20.898,264.49,231218,,,A*57
$GNRMC,144334.00,A,4227.57907,N,07503.51337,W,17.868,266.06,231218,,,A*55
$GNRMC,144335.00,A,4227.57885,N,07503.51906,W,14.047,267.20,231218,,,A*54
$GNRMC,144336.00,A,4227.57791,N,07503.52364,W,11.984,254.86,231218,,,A*5F
$GNRMC,144337.00,A,4227.57614,N,07503.52713,W,10.902,231.99,231218,,,A*54
$GNRMC,144338.00,A,4227.57334,N,07503.52943,W,12.085,207.71,231218,,,A*50
$GNRMC,144339.00,A,4227.56968,N,07503.53058,W,13.780,189.97,231218,,,A*5F
$GNRMC,144340.00,A,4227.56518,N,07503.53067,W,16.942,178.76,231218,,,A*52
$GNRMC,144341.00,A,4227.55989,N,07503.53018,W,19.521,176.25,231218,,,A*52
$GNRMC,144342.00,A,4227.55411,N,07503.52948,W,21.302,175.06,231218,,,A*5E
$GNRMC,144343.00,A,4227.54787,N,07503.52870,W,22.886,174.47,231218,,,A*58
$GNRMC,144344.00,A,4227.54130,N,07503.52779,W,23.904,174.06,231218,,,A*5C
$GNRMC,144345.00,A,4227.53471,N,07503.52692,W,23.962,174.79,231218,,,A*56
$GNRMC,144346.00,A,4227.52817,N,07503.52587,W,23.810,172.99,231218,,,A*53
$GNRMC,144347.00,A,4227.52168,N,07503.52487,W,23.046,173.60,231218,,,A*5E
$GNRMC,144348.00,A,4227.51515,N,07503.52390,W,23.662,174.04,231218,,,A*58
$GNRMC,144349.00,A,4227.50877,N,07503.52293,W,22.768,173.58,231218,,,A*57
$GNRMC,144350.00,A,4227.50245,N,07503.52202,W,22.863,174.36,231218,,,A*57
$GNRMC,144351.00,A,4227.49621,N,07503.52102,W,22.573,173.10,231218,,,A*54
$GNRMC,144352.00,A,4227.48999,N,07503.52014,W,22.605,174.40,231218,,,A*5C
$GNRMC,144353.00,A,4227.48367,N,07503.51920,W,22.917,173.77,231218,,,A*54
$GNRMC,144354.00,A,4227.47719,N,07503.51833,W,23.043,174.18,231218,,,A*55
$GNRMC,144355.00,A,4227.47069,N,07503.51736,W,23.747,173.42,231218,,,A*55
$GNRMC,144356.00,A,4227.46407,N,07503.51616,W,23.901,171.80,231218,,,A*58
$GNRMC,144357.00,A,4227.45758,N,07503.51474,W,23.534,170.37,231218,,,A*52
$GNRMC,144358.00,A,4227.45117,N,07503.51328,W,22.864,170.31,231218,,,A*51
$GNRMC,144359.00,A,4227.44502,N,07503.51201,W,21.789,171.74,231218,,,A*54
$GNRMC,144400.00,A,4227.43920,N,07503.51110,W,20.819,174.26,231218,,,A*52
$GNRMC,144401.00,A,4227.43367,N,07503.51021,W,19.847,172.84,231218,,,A*56
$GNRMC,144402.00,A,4227.42852,N,07503.50875,W,18.420,166.60,231218,,,D*57
$GNRMC,144403.00,A,4227.42346,N,07503.50760,W,17.567,170.60,231218,,,D*59
$GNRMC,144404.00,A,4227.41897,N,07503.50688,W,15.916,175.85,231218,,,D*5B
$GNRMC,144405.00,A,4227.41493,N,07503.50719,W,14.397,187.11,231218,,,D*59
$GNRMC,144406.00,A,4227.41093,N,07503.50895,W,15.154,200.33,231218,,,D*55
$GNRMC,144407.00,A,4227.40707,N,07503.51185,W,16.209,211.01,231218,,,D*5F
$GNRMC,144408.00,A,4227.40317,N,07503.51560,W,17.407,218.67,231218,,,D*5A
$GNRMC,144409.00,A,4227.39927,N,07503.52008,W,18.532,223.03,231218,,,D*56
$GNRMC,144410.00,A,4227.39540,N,07503.52489,W,18.970,222.89,231218,,,D*57
$GNRMC,144411.00,A,4227.39144,N,07503.52965,W,18.849,222.10,231218,,,D*52
$GNRMC,144412.00,A,4227.38750,N,07503.53449,W,19.186,222.49,231218,,,D*56
$GNRMC,144413.00,A,4227.38349,N,07503.53938,W,19.465,222.32,231218,,,D*54
$GNRMC,144414.00,A,4227.37929,N,07503.54428,W,19.624,222.27,231218,,,D*58
$GNRMC,144415.00,A,4227.37513,N,07503.54927,W,19.748,222.24,231218,,,D*56
$GNRMC,144416.00,A,4227.37106,N,07503.55431,W,19.692,222.75,231218,,,D*5C
$GNRMC,144417.00,A,4227.36704,N,07503.55923,W,19.274,222.32,231218,,,D*59
$GNRMC,144418.00,A,4227.36307,N,07503.56405,W,18.928,222.61,231218,,,D*5E
$GNRMC,144419.00,A,4227.35917,N,07503.56880,W,18.775,222.24,231218,,,D*51
$GNRMC,144420.00,A,4227.35527,N,07503.57360,W,18.704,223.25,231218,,,D*56
$GNRMC,144421.00,A,4227.35148,N,07503.57837,W,18.545,222.56,231218,,,D*51
$GNRMC,144422.00,A,4227.34775,N,07503.58307,W,17.963,222.76,231218,,,D*59
$GNRMC,144423.00,A,4227.34401,N,07503.58746,W,17.574,221.02,231218,,,D*53
$GNRMC,144424.00,A,4227.34037,N,07503.59187,W,17.452,221.92,231218,,,D*53
$GNRMC,144425.00,A,4227.33677,N,07503.59629,W,17.353,222.33,231218,,,D*5A
$GNRMC,144426.00,A,4227.33314,N,07503.60085,W,17.929,223.01,231218,,,D*54
$GNRMC,144427.00,A,4227.32941,N,07503.60561,W,18.654,222.22,231218,,,D*5B
$GNRMC,144428.00,A,4227.32563,N,07503.61044,W,18.565,224.01,231218,,,D*5D
$GNRMC,144429.00,A,4227.32184,N,07503.61514,W,18.305,223.19,231218,,,D*5F
$GNRMC,144430.00,A,4227.31831,N,07503.61998,W,18.065,225.72,231218,,,D*55
$GNRMC,144431.00,A,4227.31468,N,07503.62460,W,17.750,223.34,231218,,,D*57
$GNRMC,144432.00,A,4227.31110,N,07503.62913,W,17.633,222.58,231218,,,D*58
$GNRMC,144433.00,A,4227.30736,N,07503.63347,W,17.513,221.73,231218,,,D*5B
$GNRMC,144434.00,A,4227.30371,N,07503.63772,W,17.087,222.02,231218,,,D*54
$GNRMC,144435.00,A,4227.30010,N,07503.64184,W,16.766,221.79,231218,,,D*5F
$GNRMC,144436.00,A,4227.29663,N,07503.64607,W,16.817,222.89,231218,,,D*5F
$GNRMC,144437.00,A,4227.29313,N,07503.65019,W,16.644,221.01,231218,,,D*5F
$GNRMC,144438.00,A,4227.28964,N,07503.65435,W,16.711,222.38,231218,,,D*59
$GNRMC,144439.00,A,4227.28628,N,07503.65865,W,16.506,224.02,231218,,,D*5D
$GNRMC,144440.00,A,4227.28280,N,07503.66275,W,16.488,221.27,231218,,,D*58
$GNRMC,144441.00,A,4227.27946,N,07503.66691,W,16.152,223.51,231218,,,D*58
$GNRMC,144442.00,A,4227.27614,N,07503.67090,W,15.890,222.37,231218,,,D*50
$GNRMC,144443.00,A,4227.27290,N,07503.67491,W,15.659,222.48,231218,,,D*5F
$GNRMC,144444.00,A,4227.26963,N,07503.67865,W,15.212,220.22,231218,,,D*5C
$GNRMC,144445.00,A,4227.26637,N,07503.68242,W,15.508,220.47,231218,,,D*5C
$GNRMC,144446.00,A,4227.26306,N,07503.68642,W,15.859,222.17,231218,,,D*52
$GNRMC,144447.00,A,4227.25982,N,07503.69026,W,15.226,222.45,231218,,,D*56
$GNRMC,144448.00,A,4227.25678,N,07503.69405,W,14.610,223.28,231218,,,D*5C
$GNRMC,144449.00,A,4227.25377,N,07503.69780,W,14.763,222.99,231218,,,D*57
$GNRMC,144450.00,A,4227.25065,N,07503.70155,W,14.903,222.97,231218,,,D*5F
$GNRMC,144451.00,A,4227.24766,N,07503.70529,W,14.599,222.51,231218,,,D*51
$GNRMC,144452.00,A,4227.24470,N,07503.70890,W,13.871,222.96,231218,,,D*5E
$GNRMC,144453.00,A,4227.24203,N,07503.71251,W,12.944,222.60,231218,,,D*54
$GNRMC,144454.00,A,4227.23966,N,07503.71571,W,11.599,224.38,231218,,,D*5D
$GNRMC,144455.00,A,4227.23772,N,07503.71837,W,9.236,224.56,231218,,,D*6B
$GNRMC,144456.00,A,4227.23559,N,07503.72047,W,9.379,219.98,231218,,,D*69
$GNRMC,144457.00,A,4227.23342,N,07503.72391,W,13.158,229.03,231218,,,D*57
$GNRMC,144458.00,A,4227.23052,N,07503.72752,W,14.601,223.24,231218,,,D*52
$GNRMC,144459.00,A,4227.22731,N,07503.73101,W,14.812,220.62,231218,,,D*5C
$GNRMC,144500.00,A,4227.22414,N,07503.73472,W,14.801,221.25,231218,,,D*54
$GNRMC,144501.00,A,4227.22115,N,07503.73821,W,13.661,221.85,231218,,,D*5E
$GNRMC,144502.00,A,4227.21857,N,07503.74120,W,11.558,220.75,231218,,,D*5B
$GNRMC,144503.00,A,4227.21675,N,07503.74359,W,8.293,222.65,231218,,,D*63
$GNRMC,144504.00,A,4227.21527,N,07503.74526,W,6.148,221.32,231218,,,D*64
$GNRMC,144505.00,A,4227.21406,N,07503.74661,W,5.186,221.41,231218,,,D*62
$GNRMC,144506.00,A,4227.21314,N,07503.74765,W,3.648,220.19,231218,,,D*6F
$GNRMC,144507.00,A,4227.21294,N,07503.74847,W,1.126,,231218,,,D*73
$GNRMC,144508.00,A,4227.21268,N,07503.74850,W,0.723,,231218,,,D*7B
$GNRMC,144509.00,A,4227.21277,N,07503.74868,W,0.708,252.04,231218,,,D*69
$GNRMC,144510.00,A,4227.21279,N,07503.74877,W,0.100,,231218,,,D*70
$GNRMC,144511.00,A,4227.21288,N,07503.74887,W,0.289,,231218,,,D*72
$GNRMC,144512.00,A,4227.21287,N,07503.74889,W,0.105,,231218,,,D*77
$GNRMC,144513.00,A,4227.21290,N,07503.74890,W,0.063,,231218,,,D*79
$GNRMC,144514.00,A,4227.21302,N,07503.74901,W,0.479,,231218,,,D*72
$GNRMC,144515.00,A,4227.21309,N,07503.74906,W,0.242,,231218,,,D*71
$GNRMC,144516.00,A,4227.21320,N,07503.74917,W,0.463,,231218,,,D*7C
$GNRMC,144517.00,A,4227.21331,N,07503.74930,W,0.500,,231218,,,D*7C
$GNRMC,144518.00,A,4227.21329,N,07503.74930,W,0.117,,231218,,,D*78
$GNRMC,144519.00,A,4227.21317,N,07503.74913,W,0.616,,231218,,,D*73
$GNRMC,144520.00,A,4227.21307,N,07503.74915,W,0.136,,231218,,,D*7B
$GNRMC,144521.00,A,4227.21304,N,07503.74930,W,0.086,,231218,,,D*74
$GNRMC,144522.00,A,4227.21312,N,07503.74949,W,0.514,,231218,,,D*70
$GNRMC,144523.00,A,4227.21307,N,07503.74955,W,0.039,,231218,,,D*72
$GNRMC,144524.00,A,4227.21302,N,07503.74955,W,0.338,,231218,,,D*72
$GNRMC,144525.00,A,4227.21301,N,07503.74962,W,0.077,,231218,,,D*7C
$GNRMC,144526.00,A,4227.21286,N,07503.74953,W,0.243,,231218,,,D*76
$GNRMC,144527.00,A,4227.21279,N,07503.74951,W,0.055,,231218,,,D*70
$GNRMC,144528.00,A,4227.21275,N,07503.74945,W,0.179,,231218,,,D*79
$GNRMC,144529.00,A,4227.21280,N,07503.74946,W,0.186,,231218,,,D*71
$GNRMC,144530.00,A,4227.21292,N,07503.74965,W,0.715,284.56,231218,,,D*64
$GNRMC,144531.00,A,4227.21282,N,07503.74966,W,0.073,,231218,,,D*73
$GNRMC,144532.00,A,4227.21292,N,07503.74976,W,0.414,,231218,,,D*75
$GNRMC,144533.00,A,4227.21293,N,07503.74982,W,0.188,,231218,,,D*7E
$GNRMC,144534.00,A,4227.21288,N,07503.74984,W,0.113,,231218,,,D*77
$GNRMC,144535.00,A,4227.21284,N,07503.74988,W,0.204,,231218,,,D*73
$GNRMC,144536.00,A,4227.21285,N,07503.74993,W,0.202,,231218,,,D*7D
$GNRMC,144537.00,A,4227.21282,N,07503.74989,W,0.040,,231218,,,D*74
$GNRMC,144538.00,A,4227.21273,N,07503.74976,W,0.215,,231218,,,D*77
$GNRMC,144539.00,A,4227.21263,N,07503.74978,W,0.191,,231218,,,D*76
$GNRMC,144540.00,A,4227.21269,N,07503.75018,W,0.888,,231218,,,D*7D
$GNRMC,144541.00,A,4227.21212,N,07503.75088,W,3.421,248.36,231218,,,D*60
$GNRMC,144542.00,A,4227.21110,N,07503.75222,W,5.679,227.43,231218,,,D*62
$GNRMC,144543.00,A,4227.21016,N,07503.75381,W,5.225,225.99,231218,,,D*64
$GNRMC,144544.00,A,4227.20944,N,07503.75507,W,3.682,227.17,231218,,,D*6F
$GNRMC,144545.00,A,4227.20878,N,07503.75619,W,3.764,225.50,231218,,,D*64
$GNRMC,144546.00,A,4227.20786,N,07503.75751,W,4.954,223.98,231218,,,D*6C
$GNRMC,144547.00,A,4227.20680,N,07503.75917,W,6.038,225.37,231218,,,D*64
$GNRMC,144548.00,A,4227.20546,N,07503.76123,W,7.546,225.25,231218,,,D*60
$GNRMC,144549.00,A,4227.20390,N,07503.76347,W,8.222,225.06,231218,,,D*67
$GNRMC,144550.00,A,4227.20201,N,07503.76631,W,10.708,227.61,231218,,,D*55
$GNRMC,144551.00,A,4227.19956,N,07503.76932,W,12.039,223.76,231218,,,D*5E
$GNRMC,144552.00,A,4227.19721,N,07503.77235,W,11.338,222.74,231218,,,D*5C
$GNRMC,144553.00,A,4227.19476,N,07503.77517,W,11.467,220.92,231218,,,D*5C
$GNRMC,144554.00,A,4227.19218,N,07503.77859,W,13.439,223.77,231218,,,D*53
$GNRMC,144555.00,A,4227.18869,N,07503.78188,W,15.043,222.58,231218,,,D*56
$GNRMC,144556.00,A,4227.18525,N,07503.78591,W,16.276,223.85,231218,,,D*5A
$GNRMC,144557.00,A,4227.18155,N,07503.79010,W,17.037,229.16,231218,,,D*53
$GNRMC,144558.00,A,4227.17700,N,07503.79327,W,16.806,224.85,231218,,,D*5E
$GNRMC,144559.00,A,4227.17350,N,07503.79770,W,17.237,220.97,231218,,,D*56
$GNRMC,144600.00,A,4227.16961,N,07503.80211,W,18.608,218.29,231218,,,D*5D
$GNRMC,144601.00,A,4227.16526,N,07503.80644,W,19.330,216.61,231218,,,D*5A
$GNRMC,144602.00,A,4227.16076,N,07503.81040,W,19.701,212.65,231218,,,D*5C
$GNRMC,144603.00,A,4227.15618,N,07503.81410,W,19.724,210.84,231218,,,D*5B
$GNRMC,144604.00,A,4227.15132,N,07503.81776,W,19.897,208.46,231218,,,D*50
$GNRMC,144605.00,A,4227.14618,N,07503.82101,W,20.036,204.92,231218,,,D*56
$GNRMC,144606.00,A,4227.14112,N,07503.82415,W,20.152,202.23,231218,,,D*57
$GNRMC,144607.00,A,4227.13605,N,07503.82707,W,20.114,199.38,231218,,,D*59
$GNRMC,144608.00,A,4227.13059,N,07503.82962,W,21.101,196.33,231218,,,D*55
$GNRMC,144609.00,A,4227.12491,N,07503.83166,W,21.823,192.06,231218,,,D*53
$GNRMC,144610.00,A,4227.11899,N,07503.83320,W,21.735,189.71,231218,,,D*5E
$GNRMC,144611.00,A,4227.11275,N,07503.83440,W,22.777,187.73,231218,,,D*5F
$GNRMC,144612.00,A,4227.10630,N,07503.83526,W,23.753,183.99,231218,,,D*5E
$GNRMC,144613.00,A,4227.09970,N,07503.83573,W,23.945,182.00,231218,,,D*54
$GNRMC,144614.00,A,4227.09302,N,07503.83583,W,24.625,181.57,231218,,,D*5C
$GNRMC,144615.00,A,4227.08605,N,07503.83611,W,25.457,181.11,231218,,,D*52
$GNRMC,144616.00,A,4227.07886,N,07503.83622,W,25.892,180.54,231218,,,D*5E
$GNRMC,144617.00,A,4227.07163,N,07503.83620,W,25.955,179.70,231218,,,D*55
$GNRMC,144618.00,A,4227.06440,N,07503.83611,W,25.944,179.52,231218,,,D*5D
$GNRMC,144619.00,A,4227.05721,N,07503.83634,W,25.786,181.84,231218,,,D*50
$GNRMC,144620.00,A,4227.05007,N,07503.83681,W,25.759,182.78,231218,,,D*55
$GNRMC,144621.00,A,4227.04295,N,07503.83724,W,25.535,182.44,231218,,,D*55
$GNRMC,144622.00,A,4227.03580,N,07503.83739,W,25.860,181.19,231218,,,D*58
$GNRMC,144623.00,A,4227.02868,N,07503.83738,W,25.965,180.14,231218,,,D*5A
$GNRMC,144624.00,A,4227.02136,N,07503.83742,W,26.405,180.02,231218,,,D*5D
$GNRMC,144625.00,A,4227.01409,N,07503.83744,W,26.216,179.97,231218,,,D*5E
$GNRMC,144626.00,A,4227.00682,N,07503.83744,W,26.256,180.00,231218,,,D*51
$GNRMC,144627.00,A,4226.99960,N,07503.83747,W,25.796,180.48,231218,,,D*57
$GNRMC,144628.00,A,4226.99255,N,07503.83763,W,25.079,180.97,231218,,,D*57
$GNRMC,144629.00,A,4226.98558,N,07503.83776,W,24.896,180.79,231218,,,D*51
$GNRMC,144630.00,A,4226.97858,N,07503.83786,W,25.194,180.34,231218,,,D*57
$GNRMC,144631.00,A,4226.97154,N,07503.83796,W,25.424,180.61,231218,,,D*5C
$GNRMC,144632.00,A,4226.96446,N,07503.83804,W,25.395,180.25,231218,,,D*51
$GNRMC,144633.00,A,4226.95752,N,07503.83808,W,24.611,180.44,231218,,,D*56
$GNRMC,144634.00,A,4226.95080,N,07503.83809,W,24.012,180.17,231218,,,D*5B
$GNRMC,144635.00,A,4226.94376,N,07503.83808,W,25.740,180.43,231218,,,D*50
$GNRMC,144636.00,A,4226.93604,N,07503.83810,W,28.777,180.34,231218,,,D*54
$GNRMC,144637.00,A,4226.92781,N,07503.83819,W,29.912,180.46,231218,,,D*58
$GNRMC,144638.00,A,4226.91953,N,07503.83826,W,29.639,180.12,231218,,,D*5E
$GNRMC,144639.00,A,4226.91127,N,07503.83829,W,29.680,179.97,231218,,,D*52
$GNRMC,144640.00,A,4226.90297,N,07503.83830,W,29.887,180.04,231218,,,D*58
$GNRMC,144641.00,A,4226.89481,N,07503.83815,W,29.368,178.65,231218,,,D*5D
$GNRMC,144642.00,A,4226.88678,N,07503.83765,W,28.520,177.04,231218,,,D*50
$GNRMC,144643.00,A,4226.87899,N,07503.83672,W,27.802,174.69,231218,,,D*52
$GNRMC,144644.00,A,4226.87148,N,07503.83546,W,26.936,172.52,231218,,,D*5D
$GNRMC,144645.00,A,4226.86425,N,07503.83401,W,26.091,171.56,231218,,,D*52
$GNRMC,144646.00,A,4226.85698,N,07503.83244,W,26.565,170.86,231218,,,D*53
$GNRMC,144647.00,A,4226.84969,N,07503.83074,W,26.574,169.73,231218,,,D*51
$GNRMC,144648.00,A,4226.84246,N,07503.82899,W,26.238,169.65,231218,,,D*5A
$GNRMC,144649.00,A,4226.83540,N,07503.82728,W,25.480,169.83,231218,,,D*56
$GNRMC,144650.00,A,4226.82860,N,07503.82571,W,24.283,170.03,231218,,,D*5A
$GNRMC,144651.00,A,4226.82244,N,07503.82445,W,21.298,171.68,231218,,,D*52
$GNRMC,144652.00,A,4226.81714,N,07503.82386,W,18.214,177.45,231218,,,D*5D
$GNRMC,144653.00,A,4226.81268,N,07503.82461,W,15.445,190.39,231218,,,D*51
$GNRMC,144654.00,A,4226.80897,N,07503.82705,W,14.765,209.65,231218,,,D*56
$GNRMC,144655.00,A,4226.80566,N,07503.83117,W,16.809,226.52,231218,,,D*5E
$GNRMC,144656.00,A,4226.80241,N,07503.83694,W,20.467,234.19,231218,,,D*5E
$GNRMC,144657.00,A,4226.79877,N,07503.84399,W,23.926,235.55,231218,,,D*5B
$GNRMC,144658.00,A,4226.79464,N,07503.85210,W,27.218,235.39,231218,,,D*53
$GNRMC,144659.00,A,4226.78992,N,07503.86109,W,30.236,234.97,231218,,,D*50
$GNRMC,144700.00,A,4226.78471,N,07503.87090,W,33.058,234.16,231218,,,D*5D
$GNRMC,144701.00,A,4226.77888,N,07503.88137,W,35.652,232.78,231218,,,D*5E
$GNRMC,144702.00,A,4226.77229,N,07503.89223,W,37.908,230.41,231218,,,D*51
$GNRMC,144703.00,A,4226.76487,N,07503.90336,W,40.079,228.76,231218,,,D*5C
$GNRMC,144704.00,A,4226.75696,N,07503.91484,W,42.089,227.30,231218,,,D*55
$GNRMC,144705.00,A,4226.74871,N,07503.92661,W,43.469,226.81,231218,,,D*58
$GNRMC,144706.00,A,4226.74017,N,07503.93882,W,45.081,226.78,231218,,,D*53
$GNRMC,144707.00,A,4226.73128,N,07503.95147,W,46.926,226.46,231218,,,D*54
$GNRMC,144708.00,A,4226.72200,N,07503.96456,W,48.817,226.20,231218,,,D*58
$GNRMC,144709.00,A,4226.71235,N,07503.97821,W,50.832,226.32,231218,,,D*5C
$GNRMC,144710.00,A,4226.70225,N,07503.99231,W,52.909,225.79,231218,,,D*56
$GNRMC,144711.00,A,4226.69174,N,07504.00699,W,54.932,226.04,231218,,,D*5E
$GNRMC,144712.00,A,4226.68097,N,07504.02219,W,56.557,226.29,231218,,,D*5C
$GNRMC,144713.00,A,4226.66993,N,07504.03744,W,56.848,225.52,231218,,,D*5E
$GNRMC,144714.00,A,4226.65890,N,07504.05257,W,56.311,225.64,231218,,,D*5B
$GNRMC,144715.00,A,4226.64795,N,07504.06782,W,56.623,226.10,231218,,,D*5B
$GNRMC,144716.00,A,4226.63712,N,07504.08305,W,56.076,226.36,231218,,,D*57
$GNRMC,144717.00,A,4226.62619,N,07504.09844,W,56.882,226.40,231218,,,D*50
$GNRMC,144718.00,A,4226.61511,N,07504.11396,W,57.603,226.11,231218,,,D*58
$GNRMC,144719.00,A,4226.60403,N,07504.12958,W,57.568,226.27,231218,,,D*5A
$GNRMC,144720.00,A,4226.59305,N,07504.14531,W,57.595,226.88,231218,,,D*59
$GNRMC,144721.00,A,4226.58211,N,07504.16117,W,57.714,227.20,231218,,,D*57
$GNRMC,144722.00,A,4226.57122,N,07504.17719,W,57.950,227.70,231218,,,D*5A
$GNRMC,144723.00,A,4226.56059,N,07504.19358,W,58.078,229.38,231218,,,D*56
$GNRMC,144724.00,A,4226.55039,N,07504.21057,W,58.318,231.82,231218,,,D*5E
$GNRMC,144725.00,A,4226.54089,N,07504.22862,W,59.150,234.53,231218,,,D*5E
$GNRMC,144726.00,A,4226.53191,N,07504.24739,W,59.617,237.50,231218,,,D*51
$GNRMC,144727.00,A,4226.52348,N,07504.26666,W,59.656,240.06,231218,,,D*58
$GNRMC,144728.00,A,4226.51572,N,07504.28644,W,59.701,242.89,231218,,,D*53
$GNRMC,144729.00,A,4226.50868,N,07504.30662,W,59.314,245.73,231218,,,D*5A
$GNRMC,144730.00,A,4226.50243,N,07504.32718,W,59.248,248.49,231218,,,D*53
$GNRMC,144731.00,A,4226.49689,N,07504.34814,W,59.182,251.15,231218,,,D*59
$GNRMC,144732.00,A,4226.49210,N,07504.36925,W,58.623,253.76,231218,,,D*55
$GNRMC,144733.00,A,4226.48817,N,07504.39055,W,58.402,256.64,231218,,,D*5E
$GNRMC,144734.00,A,4226.48495,N,07504.41192,W,57.980,259.26,231218,,,D*5B
$GNRMC,144735.00,A,4226.48253,N,07504.43325,W,57.402,262.11,231218,,,D*51
$GNRMC,144736.00,A,4226.48096,N,07504.45456,W,56.911,265.22,231218,,,D*55
$GNRMC,144737.00,A,4226.48014,N,07504.47587,W,56.814,267.82,231218,,,D*5D
$GNRMC,144738.00,A,4226.48011,N,07504.49710,W,56.450,270.89,231218,,,D*54
$GNRMC,144739.00,A,4226.48070,N,07504.51833,W,56.577,272.72,231218,,,D*57
$GNRMC,144740.00,A,4226.48189,N,07504.53948,W,56.350,275.16,231218,,,D*57
$GNRMC,144741.00,A,4226.48373,N,07504.56059,W,56.432,277.44,231218,,,D*5B
$GNRMC,144742.00,A,4226.48601,N,07504.58162,W,56.468,278.78,231218,,,D*50
$GNRMC,144743.00,A,4226.48855,N,07504.60276,W,56.540,279.39,231218,,,D*5C
$GNRMC,144744.00,A,4226.49107,N,07504.62372,W,56.369,279.23,231218,,,D*55
$GNRMC,144745.00,A,4226.49359,N,07504.64462,W,56.352,279.36,231218,,,D*51
$GNRMC,144746.00,A,4226.49621,N,07504.66557,W,56.663,279.77,231218,,,D*5F
$GNRMC,144747.00,A,4226.49880,N,07504.68652,W,56.538,279.52,231218,,,D*59
$GNRMC,144748.00,A,4226.50135,N,07504.70735,W,56.119,279.49,231218,,,D*5D
$GNRMC,144749.00,A,4226.50386,N,07504.72818,W,56.304,279.46,231218,,,D*55
$GNRMC,144750.00,A,4226.50635,N,07504.74899,W,56.104,279.22,231218,,,D*5F
$GNRMC,144751.00,A,4226.50884,N,07504.76967,W,55.736,279.38,231218,,,D*57
$GNRMC,144752.00,A,4226.51129,N,07504.79033,W,55.999,279.51,231218,,,D*58
$GNRMC,144753.00,A,4226.51369,N,07504.81092,W,55.708,279.41,231218,,,D*54
$GNRMC,144754.00,A,4226.51608,N,07504.83152,W,55.715,279.16,231218,,,D*50
$GNRMC,144755.00,A,4226.51841,N,07504.85207,W,55.764,279.26,231218,,,D*52
$GNRMC,144756.00,A,4226.52080,N,07504.87255,W,55.397,279.43,231218,,,D*59
$GNRMC,144757.00,A,4226.52331,N,07504.89288,W,54.824,279.72,231218,,,D*5F
$GNRMC,144758.00,A,4226.52579,N,07504.91306,W,54.517,279.59,231218,,,D*50
$GNRMC,144759.00,A,4226.52821,N,07504.93323,W,54.599,279.51,231218,,,D*5A
$GNRMC,144800.00,A,4226.53067,N,07504.95326,W,54.011,279.54,231218,,,D*51
$GNRMC,144801.00,A,4226.53310,N,07504.97319,W,53.918,279.40,231218,,,D*5F
$GNRMC,144802.00,A,4226.53546,N,07504.99310,W,53.768,279.31,231218,,,D*51
$GNRMC,144803.00,A,4226.53785,N,07505.01314,W,54.392,279.29,231218,,,D*56
$GNRMC,144804.00,A,4226.54031,N,07505.03346,W,55.130,279.33,231218,,,D*5B
$GNRMC,144805.00,A,4226.54278,N,07505.05396,W,55.457,279.31,231218,,,D*58
$GNRMC,144806.00,A,4226.54523,N,07505.07447,W,55.623,279.33,231218,,,D*58
$GNRMC,144807.00,A,4226.54771,N,07505.09501,W,55.668,279.38,231218,,,D*55
$GNRMC,144808.00,A,4226.55022,N,07505.11552,W,55.383,279.49,231218,,,D*53
$GNRMC,144809.00,A,4226.55274,N,07505.13596,W,55.282,279.54,231218,,,D*55
$GNRMC,144810.00,A,4226.55524,N,07505.15634,W,55.140,279.29,231218,,,D*55
$GNRMC,144811.00,A,4226.55766,N,07505.17668,W,54.883,279.23,231218,,,D*56
$GNRMC,144812.00,A,4226.56012,N,07505.19693,W,54.832,279.41,231218,,,D*56
$GNRMC,144813.00,A,4226.56260,N,07505.21728,W,55.051,279.46,231218,,,D*51
$GNRMC,144814.00,A,4226.56510,N,07505.23767,W,55.128,279.47,231218,,,D*51
$GNRMC,144815.00,A,4226.56766,N,07505.25816,W,55.489,279.65,231218,,,D*52
$GNRMC,144816.00,A,4226.57023,N,07505.27873,W,55.725,279.52,231218,,,D*56
$GNRMC,144817.00,A,4226.57283,N,07505.29938,W,55.920,279.58,231218,,,D*5E
$GNRMC,144818.00,A,4226.57536,N,07505.31994,W,55.514,279.49,231218,,,D*5C
$GNRMC,144819.00,A,4226.57791,N,07505.34046,W,55.529,279.63,231218,,,D*57
$GNRMC,144820.00,A,4226.58052,N,07505.36096,W,55.407,279.86,231218,,,D*53
$GNRMC,144821.00,A,4226.58304,N,07505.38145,W,55.376,279.51,231218,,,D*58
$GNRMC,144822.00,A,4226.58555,N,07505.40198,W,55.561,279.40,231218,,,D*56
$GNRMC,144823.00,A,4226.58803,N,07505.42248,W,55.333,279.28,231218,,,D*5A
$GNRMC,144824.00,A,4226.59042,N,07505.44283,W,54.793,279.10,231218,,,D*54
$GNRMC,144825.00,A,4226.59285,N,07505.46316,W,54.998,279.29,231218,,,D*5C
$GNRMC,144826.00,A,4226.59532,N,07505.48367,W,55.538,279.36,231218,,,D*55
$GNRMC,144827.00,A,4226.59781,N,07505.50431,W,55.837,279.26,231218,,,D*50
$GNRMC,144828.00,A,4226.60036,N,07505.52498,W,55.973,279.68,231218,,,D*54
$GNRMC,144829.00,A,4226.60294,N,07505.54578,W,56.370,279.45,231218,,,D*53
$GNRMC,144830.00,A,4226.60553,N,07505.56670,W,56.615,279.61,231218,,,D*5E
$GNRMC,144831.00,A,4226.60812,N,07505.58766,W,56.633,279.47,231218,,,D*5F
$GNRMC,144832.00,A,4226.61071,N,07505.60858,W,56.531,279.43,231218,,,D*5C
$GNRMC,144833.00,A,4226.61323,N,07505.62930,W,55.800,279.30,231218,,,D*5C
$GNRMC,144834.00,A,4226.61578,N,07505.64997,W,55.881,279.34,231218,,,D*55
$GNRMC,144835.00,A,4226.61833,N,07505.67063,W,55.715,279.50,231218,,,D*57
$GNRMC,144836.00,A,4226.62092,N,07505.69123,W,55.591,279.70,231218,,,D*53
$GNRMC,144837.00,A,4226.62352,N,07505.71165,W,55.061,279.69,231218,,,D*54
$GNRMC,144838.00,A,4226.62600,N,07505.73192,W,54.642,279.17,231218,,,D*5C
$GNRMC,144839.00,A,4226.62835,N,07505.75203,W,54.194,278.66,231218,,,D*53
$GNRMC,144840.00,A,4226.63036,N,07505.77211,W,54.015,277.18,231218,,,D*58
$GNRMC,144841.00,A,4226.63182,N,07505.79238,W,54.327,274.95,231218,,,D*56
$GNRMC,144842.00,A,4226.63270,N,07505.81288,W,54.988,272.69,231218,,,D*5D
$GNRMC,144843.00,A,4226.63288,N,07505.83357,W,55.232,269.93,231218,,,D*5E
$GNRMC,144844.00,A,4226.63235,N,07505.85441,W,55.734,267.24,231218,,,D*58
$GNRMC,144845.00,A,4226.63114,N,07505.87559,W,57.087,264.09,231218,,,D*52
$GNRMC,144846.00,A,4226.62887,N,07505.89705,W,58.352,261.02,231218,,,D*5C
$GNRMC,144847.00,A,4226.62558,N,07505.91867,W,59.103,257.67,231218,,,D*51
$GNRMC,144848.00,A,4226.62144,N,07505.94025,W,59.654,255.03,231218,,,D*59
$GNRMC,144849.00,A,4226.61657,N,07505.96173,W,60.103,252.49,231218,,,D*58
$GNRMC,144850.00,A,4226.61089,N,07505.98300,W,60.489,249.56,231218,,,D*5E
$GNRMC,144851.00,A,4226.60439,N,07506.00367,W,59.802,246.26,231218,,,D*5F
$GNRMC,144852.00,A,4226.59699,N,07506.02311,W,58.397,243.27,231218,,,D*5F
$GNRMC,144853.00,A,4226.58924,N,07506.04234,W,57.780,240.55,231218,,,D*5D
$GNRMC,144854.00,A,4226.58072,N,07506.06104,W,58.395,237.58,231218,,,D*50
$GNRMC,144855.00,A,4226.57136,N,07506.07936,W,59.525,234.45,231218,,,D*54
$GNRMC,144856.00,A,4226.56128,N,07506.09729,W,60.360,231.49,231218,,,D*53
$GNRMC,144857.00,A,4226.55040,N,07506.11439,W,60.081,228.32,231218,,,D*5D
$GNRMC,144858.00,A,4226.53905,N,07506.13075,W,60.034,225.62,231218,,,D*54
$GNRMC,144859.00,A,4226.52684,N,07506.14628,W,60.967,222.66,231218,,,D*57
$GNRMC,144900.00,A,4226.51380,N,07506.16114,W,61.789,219.18,231218,,,D*5C
$GNRMC,144901.00,A,4226.50014,N,07506.17475,W,61.921,215.59,231218,,,D*54
$GNRMC,144902.00,A,4226.48602,N,07506.18778,W,61.503,213.83,231218,,,D*53
$GNRMC,144903.00,A,4226.47173,N,07506.20022,W,60.965,212.44,231218,,,D*58
$GNRMC,144904.00,A,4226.45739,N,07506.21235,W,60.743,211.96,231218,,,D*56
$GNRMC,144905.00,A,4226.44309,N,07506.22448,W,60.736,212.27,231218,,,D*55
$GNRMC,144906.00,A,4226.42869,N,07506.23644,W,60.769,211.46,231218,,,D*5C
$GNRMC,144907.00,A,4226.41427,N,07506.24826,W,60.692,211.15,231218,,,D*56
$GNRMC,144908.00,A,4226.39987,N,07506.25994,W,60.628,211.12,231218,,,D*5E
$GNRMC,144909.00,A,4226.38539,N,07506.27177,W,60.696,211.16,231218,,,D*51
$GNRMC,144910.00,A,4226.37102,N,07506.28350,W,60.604,211.31,231218,,,D*5C
$GNRMC,144911.00,A,4226.35664,N,07506.29527,W,60.627,211.23,231218,,,D*5D
$GNRMC,144912.00,A,4226.34223,N,07506.30705,W,60.601,211.21,231218,,,D*54
$GNRMC,144913.00,A,4226.32779,N,07506.31882,W,60.643,211.20,231218,,,D*5F
$GNRMC,144914.00,A,4226.31337,N,07506.33063,W,60.645,211.29,231218,,,D*5F
$GNRMC,144915.00,A,4226.29897,N,07506.34244,W,60.678,211.33,231218,,,D*53
$GNRMC,144916.00,A,4226.28456,N,07506.35427,W,60.686,211.36,231218,,,D*56
$GNRMC,144917.00,A,4226.27011,N,07506.36613,W,60.762,211.23,231218,,,D*56
$GNRMC,144918.00,A,4226.25566,N,07506.37792,W,60.752,211.18,231218,,,D*5C
$GNRMC,144919.00,A,4226.24121,N,07506.38972,W,60.725,211.21,231218,,,D*5E
$GNRMC,144920.00,A,4226.22677,N,07506.40153,W,60.746,211.14,231218,,,D*51
$GNRMC,144921.00,A,4226.21235,N,07506.41337,W,60.791,211.23,231218,,,D*5E
