$GNGGA,143537.71,,,,,0,00,99.99,,,,,,*79
$GNGGA,143538.00,,,,,0,00,99.99,,,,,,*70
$GNGGA,143539.00,,,,,0,00,99.99,,,,,,*71
$GNGGA,143539.50,,,,,0,03,3.73,,,,,,*40
$GNGGA,143540.00,,,,,0,03,3.73,,,,,,*4B
$GNGGA,143541.00,4228.21353,N,07503.88667,W,1,05,1.85,446.4,M,-34.1,M,,*7A
$GNGGA,143542.00,4228.21239,N,07503.88624,W,1,05,1.85,447.0,M,-34.1,M,,*76
$GNGGA,143543.00,4228.21282,N,07503.88480,W,1,05,1.85,445.5,M,-34.1,M,,*7C
$GNGGA,143544.00,4228.21286,N,07503.88441,W,1,05,1.85,444.8,M,-34.1,M,,*7E
$GNGGA,143545.00,4228.21303,N,07503.88460,W,1,05,1.85,444.3,M,-34.1,M,,*7B
$GNGGA,143546.00,4228.21301,N,07503.88461,W,1,05,1.85,444.3,M,-34.1,M,,*7B
$GNGGA,143547.00,4228.21300,N,07503.88469,W,1,05,1.85,444.4,M,-34.1,M,,*74
$GNGGA,143548.00,4228.21301,N,07503.88471,W,1,05,1.85,444.3,M,-34.1,M,,*74
$GNGGA,143549.00,4228.21298,N,07503.88467,W,1,05,1.85,444.2,M,-34.1,M,,*72
$GNGGA,143550.00,4228.21301,N,07503.88463,W,1,05,1.85,444.1,M,-34.1,M,,*7C
$GNGGA,143551.00,4228.21302,N,07503.88455,W,1,05,1.85,443.8,M,-34.1,M,,*75
$GNGGA,143552.00,4228.21304,N,07503.88457,W,1,05,1.85,443.8,M,-34.1,M,,*72
$GNGGA,143553.00,4228.21306,N,07503.88452,W,1,05,1.85,443.6,M,-34.1,M,,*7A
$GNGGA,143554.00,4228.21317,N,07503.88439,W,1,05,1.85,443.2,M,-34.1,M,,*74
$GNGGA,143555.00,4228.21313,N,07503.88439,W,1,05,1.85,443.3,M,-34.1,M,,*70
$GNGGA,143556.00,4228.21312,N,07503.88438,W,1,05,1.85,443.3,M,-34.1,M,,*73
$GNGGA,143557.00,4228.21299,N,07503.88446,W,1,05,1.85,443.7,M,-34.1,M,,*7D
$GNGGA,143558.00,4228.21291,N,07503.88453,W,1,05,1.85,444.0,M,-34.1,M,,*7E
$GNGGA,143559.00,4228.21284,N,07503.88464,W,1,05,1.85,444.3,M,-34.1,M,,*7C
$GNGGA,143600.00,4228.21278,N,07503.88467,W,1,05,1.85,444.4,M,-34.1,M,,*74
$GNGGA,143601.00,4228.21268,N,07503.88475,W,1,05,1.85,444.7,M,-34.1,M,,*74
$GNGGA,143602.00,4228.21263,N,07503.88477,W,1,05,1.84,444.8,M,-34.1,M,,*70
$GNGGA,143603.00,4228.21257,N,07503.88481,W,1,05,1.84,445.0,M,-34.1,M,,*76
$GNGGA,143604.00,4228.21245,N,07503.88491,W,1,05,1.84,445.3,M,-34.1,M,,*70
$GNGGA,143605.00,4228.21244,N,07503.88496,W,1,05,1.84,445.3,M,-34.1,M,,*77
$GNGGA,143606.00,4228.21250,N,07503.88507,W,1,05,1.84,444.7,M,-34.1,M,,*7D
$GNGGA,143607.00,4228.21252,N,07503.88514,W,1,05,1.84,444.5,M,-34.1,M,,*7E
$GNGGA,143608.00,4228.21254,N,07503.88513,W,1,05,1.84,444.3,M,-34.1,M,,*76
$GNGGA,143609.00,4228.21255,N,07503.88514,W,1,05,1.84,444.2,M,-34.1,M,,*70
$GNGGA,143610.00,4228.21261,N,07503.88511,W,1,05,1.84,443.9,M,-34.1,M,,*76
$GNGGA,143611.00,4228.21261,N,07503.88509,W,1,05,1.84,443.9,M,-34.1,M,,*7E
$GNGGA,143611.00,4228.21260,N,07503.88509,W,1,06,1.77,443.8,M,-34.1,M,,*71
$GNGGA,143612.00,4228.21259,N,07503.88510,W,1,06,1.77,443.9,M,-34.1,M,,*71
$GNGGA,143613.00,4228.21262,N,07503.88506,W,1,06,1.77,443.7,M,-34.1,M,,*71
$GNGGA,143614.00,4228.21264,N,07503.88503,W,1,06,1.77,443.6,M,-34.1,M,,*74
$GNGGA,143615.00,4228.21259,N,07503.88504,W,1,06,1.77,443.7,M,-34.1,M,,*7D
$GNGGA,143616.00,4228.21259,N,07503.88510,W,1,06,1.77,443.7,M,-34.1,M,,*7B
$GNGGA,143617.00,4228.21258,N,07503.88512,W,1,06,1.77,443.6,M,-34.1,M,,*78
$GNGGA,143618.00,4228.21258,N,07503.88513,W,1,06,1.77,443.6,M,-34.1,M,,*76
$GNGGA,143619.00,4228.21282,N,07503.88490,W,1,07,1.64,442.6,M,-34.1,M,,*78
$GNGGA,143620.00,4228.21302,N,07503.88473,W,1,07,1.64,441.9,M,-34.1,M,,*7A
$GNGGA,143621.00,4228.21312,N,07503.88467,W,1,07,1.64,441.5,M,-34.1,M,,*73
$GNGGA,143622.00,4228.21315,N,07503.88462,W,1,07,1.64,441.3,M,-34.1,M,,*74
$GNGGA,143623.00,4228.21319,N,07503.88457,W,1,07,1.64,441.2,M,-34.1,M,,*7E
$GNGGA,143624.00,4228.21327,N,07503.88456,W,1,07,1.64,440.9,M,-34.1,M,,*7F
$GNGGA,143625.00,4228.21332,N,07503.88459,W,1,07,1.64,440.8,M,-34.1,M,,*74
$GNGGA,143626.00,4228.21336,N,07503.88461,W,1,07,1.64,440.7,M,-34.1,M,,*77
$GNGGA,143627.00,4228.21341,N,07503.88462,W,1,07,1.64,440.5,M,-34.1,M,,*77
$GNGGA,143628.00,4228.21344,N,07503.88464,W,1,07,1.64,440.4,M,-34.1,M,,*7A
$GNGGA,143629.00,4228.21343,N,07503.88460,W,1,07,1.64,440.3,M,-34.1,M,,*7F
$GNGGA,143630.00,4228.21341,N,07503.88458,W,1,07,1.64,440.3,M,-34.1,M,,*7E
$GNGGA,143631.00,4228.21339,N,07503.88457,W,1,08,1.11,440.4,M,-34.1,M,,*75
$GNGGA,143632.00,4228.21342,N,07503.88456,W,1,08,1.11,440.3,M,-34.1,M,,*7C
$GNGGA,143633.00,4228.21343,N,07503.88453,W,1,08,1.11,440.2,M,-34.1,M,,*78
$GNGGA,143634.00,4228.21343,N,07503.88451,W,1,08,1.11,440.1,M,-34.1,M,,*7E
$GNGGA,143635.00,4228.21343,N,07503.88445,W,1,08,1.11,440.0,M,-34.1,M,,*7B
$GNGGA,143636.00,4228.21342,N,07503.88441,W,1,08,1.11,440.0,M,-34.1,M,,*7D
$GNGGA,143637.00,4228.21346,N,07503.88441,W,1,08,1.11,439.9,M,-34.1,M,,*7F
$GNGGA,143638.00,4228.21348,N,07503.88440,W,1,08,1.12,439.8,M,-34.1,M,,*7D
$GNGGA,143639.00,4228.21352,N,07503.88443,W,1,10,0.88,439.7,M,-34.1,M,,*70
$GNGGA,143640.00,4228.21358,N,07503.88446,W,1,10,0.88,439.6,M,-34.1,M,,*70
$GNGGA,143641.00,4228.21366,N,07503.88450,W,1,10,0.88,439.3,M,-34.1,M,,*7E
$GNGGA,143642.00,4228.21374,N,07503.88455,W,1,10,0.88,439.1,M,-34.1,M,,*79
$GNGGA,143643.00,4228.21383,N,07503.88453,W,1,10,0.88,438.8,M,-34.1,M,,*7E
$GNGGA,143644.00,4228.21390,N,07503.88454,W,1,10,0.88,438.6,M,-34.1,M,,*72
$GNGGA,143645.00,4228.21394,N,07503.88454,W,1,10,0.88,438.4,M,-34.1,M,,*75
$GNGGA,143646.00,4228.21395,N,07503.88454,W,1,10,0.88,438.3,M,-34.1,M,,*70
$GNGGA,143647.00,4228.21395,N,07503.88451,W,1,10,0.88,438.2,M,-34.1,M,,*75
$GNGGA,143648.00,4228.21394,N,07503.88446,W,1,10,0.88,438.2,M,-34.1,M,,*7D
$GNGGA,143649.00,4228.21392,N,07503.88444,W,1,11,0.75,438.2,M,-34.1,M,,*7B
$GNGGA,143650.00,4228.21392,N,07503.88444,W,2,11,0.75,438.3,M,-34.1,M,,0000*71
$GNGGA,143651.00,4228.21393,N,07503.88443,W,2,11,0.75,438.3,M,-34.1,M,,0000*76
$GNGGA,143652.00,4228.21393,N,07503.88442,W,2,11,0.75,438.3,M,-34.1,M,,0000*74
$GNGGA,143653.00,4228.21394,N,07503.88440,W,2,11,0.75,438.3,M,-34.1,M,,0000*70
$GNGGA,143654.00,4228.21397,N,07503.88436,W,2,11,0.75,438.3,M,-34.1,M,,0000*75
$GNGGA,143655.00,4228.21402,N,07503.88434,W,2,11,0.75,438.3,M,-34.1,M,,0000*7D
$GNGGA,143656.00,4228.21406,N,07503.88425,W,2,11,0.75,438.3,M,-34.1,M,,0000*7A
$GNGGA,143657.00,4228.21407,N,07503.88411,W,2,11,0.75,438.4,M,-34.1,M,,0000*7A
$GNGGA,143658.00,4228.21407,N,07503.88401,W,2,11,0.75,438.5,M,-34.1,M,,0000*75
$GNGGA,143659.00,4228.21411,N,07503.88396,W,2,11,0.75,438.5,M,-34.1,M,,0000*7A
$GNGGA,143700.00,4228.21411,N,07503.88388,W,2,11,0.75,438.5,M,-34.1,M,,0000*78
$GNGGA,143701.00,4228.21412,N,07503.88382,W,2,11,0.75,438.5,M,-34.1,M,,0000*70
$GNGGA,143702.00,4228.21414,N,07503.88379,W,2,11,0.88,438.5,M,-34.1,M,,0000*73
$GNGGA,143703.00,4228.21419,N,07503.88374,W,2,11,0.75,438.4,M,-34.1,M,,0000*71
$GNGGA,143704.00,4228.21419,N,07503.88368,W,2,11,0.75,438.4,M,-34.1,M,,0000*7B
$GNGGA,143705.00,4228.21420,N,07503.88363,W,2,11,0.75,438.5,M,-34.1,M,,0000*7A
$GNGGA,143706.00,4228.21423,N,07503.88362,W,2,11,0.75,438.4,M,-34.1,M,,0000*7A
$GNGGA,143707.00,4228.21424,N,07503.88358,W,2,11,0.75,438.5,M,-34.1,M,,0000*74
$GNGGA,143708.00,4228.21424,N,07503.88355,W,2,11,0.75,438.5,M,-34.1,M,,0000*76
$GNGGA,143709.00,4228.21426,N,07503.88353,W,2,11,0.75,438.5,M,-34.1,M,,0000*73
$GNGGA,143710.00,4228.21424,N,07503.88350,W,2,11,0.75,438.5,M,-34.1,M,,0000*7A
$GNGGA,143711.00,4228.21423,N,07503.88347,W,2,11,0.75,438.5,M,-34.1,M,,0000*7A
$GNGGA,143712.00,4228.21422,N,07503.88345,W,2,11,0.75,438.4,M,-34.1,M,,0000*7B
$GNGGA,143713.00,4228.21415,N,07503.88333,W,2,11,0.75,438.4,M,-34.1,M,,0000*7F
$GNGGA,143714.00,4228.21414,N,07503.88330,W,2,11,0.75,438.4,M,-34.1,M,,0000*7A
$GNGGA,143715.00,4228.21416,N,07503.88325,W,2,11,0.75,438.2,M,-34.1,M,,0000*7B
$GNGGA,143716.00,4228.21422,N,07503.88318,W,2,11,0.75,438.1,M,-34.1,M,,0000*72
$GNGGA,143717.00,4228.21422,N,07503.88318,W,2,11,0.75,438.2,M,-34.1,M,,0000*70
$GNGGA,143718.00,4228.21429,N,07503.88325,W,2,11,0.75,438.2,M,-34.1,M,,0000*7A
$GNGGA,143719.00,4228.21431,N,07503.88328,W,2,11,0.75,438.2,M,-34.1,M,,0000*7F
$GNGGA,143720.00,4228.21433,N,07503.88332,W,2,11,0.75,438.1,M,-34.1,M,,0000*7F
$GNGGA,143721.00,4228.21440,N,07503.88339,W,2,11,0.75,438.2,M,-34.1,M,,0000*72
$GNGGA,143722.00,4228.21444,N,07503.88342,W,2,11,0.75,438.1,M,-34.1,M,,0000*7A
$GNGGA,143723.00,4228.21446,N,07503.88346,W,2,11,0.75,438.0,M,-34.1,M,,0000*7C
$GNGGA,143724.00,4228.21451,N,07503.88351,W,2,11,0.75,438.0,M,-34.1,M,,0000*7B
$GNGGA,143725.00,4228.21456,N,07503.88355,W,2,11,0.75,437.9,M,-34.1,M,,0000*7F
$GNGGA,143726.00,4228.21459,N,07503.88354,W,2,11,0.75,437.9,M,-34.1,M,,0000*72
$GNGGA,143727.00,4228.21461,N,07503.88354,W,2,11,0.75,437.8,M,-34.1,M,,0000*79
$GNGGA,143728.00,4228.21463,N,07503.88354,W,2,11,0.75,437.8,M,-34.1,M,,0000*74
$GNGGA,143729.00,4228.21465,N,07503.88353,W,2,11,0.75,437.8,M,-34.1,M,,0000*74
$GNGGA,143730.00,4228.21468,N,07503.88354,W,2,11,0.75,437.7,M,-34.1,M,,0000*79
$GNGGA,143731.00,4228.21471,N,07503.88361,W,2,11,0.75,437.6,M,-34.1,M,,0000*77
$GNGGA,143732.00,4228.21472,N,07503.88363,W,2,11,0.75,437.5,M,-34.1,M,,0000*76
$GNGGA,143733.00,4228.21472,N,07503.88363,W,2,11,0.75,437.4,M,-34.1,M,,0000*76
$GNGGA,143734.00,4228.21474,N,07503.88364,W,2,11,0.75,437.4,M,-34.1,M,,0000*70
$GNGGA,143735.00,4228.21476,N,07503.88367,W,2,11,0.75,437.3,M,-34.1,M,,0000*77
$GNGGA,143736.00,4228.21476,N,07503.88365,W,2,11,0.75,437.2,M,-34.1,M,,0000*77
$GNGGA,143737.00,4228.21474,N,07503.88365,W,2,12,0.73,436.9,M,-34.1,M,,0000*7B
$GNGGA,143738.00,4228.21474,N,07503.88364,W,2,12,0.73,436.8,M,-34.1,M,,0000*74
$GNGGA,143739.00,4228.21474,N,07503.88365,W,2,12,0.73,436.6,M,-34.1,M,,0000*7A
$GNGGA,143740.00,4228.21476,N,07503.88366,W,2,12,0.73,436.5,M,-34.1,M,,0000*76
$GNGGA,143741.00,4228.21480,N,07503.88369,W,2,12,0.73,436.4,M,-34.1,M,,0000*70
$GNGGA,143742.00,4228.21482,N,07503.88371,W,2,12,0.73,436.4,M,-34.1,M,,0000*78
$GNGGA,143743.00,4228.21482,N,07503.88373,W,2,12,0.73,436.3,M,-34.1,M,,0000*7C
$GNGGA,143744.00,4228.21485,N,07503.88378,W,2,12,0.73,436.2,M,-34.1,M,,0000*76
$GNGGA,143745.00,4228.21486,N,07503.88377,W,2,12,0.73,436.2,M,-34.1,M,,0000*7B
$GNGGA,143746.00,4228.21485,N,07503.88378,W,2,12,0.73,436.2,M,-34.1,M,,0000*74
$GNGGA,143747.00,4228.21484,N,07503.88379,W,2,12,0.73,436.1,M,-34.1,M,,0000*76
$GNGGA,143748.00,4228.21483,N,07503.88379,W,2,12,0.73,436.2,M,-34.1,M,,0000*7D
$GNGGA,143749.00,4228.21482,N,07503.88379,W,2,12,0.73,436.2,M,-34.1,M,,0000*7D
$GNGGA,143750.00,4228.21479,N,07503.88375,W,2,12,0.73,436.2,M,-34.1,M,,0000*7D
$GNGGA,143751.00,4228.21479,N,07503.88378,W,2,12,0.73,436.1,M,-34.1,M,,0000*72
$GNGGA,143752.00,4228.21476,N,07503.88380,W,2,12,0.73,436.1,M,-34.1,M,,0000*79
$GNGGA,143753.00,4228.21476,N,07503.88380,W,2,12,0.73,436.1,M,-34.1,M,,0000*78
$GNGGA,143754.00,4228.21477,N,07503.88382,W,2,12,0.73,436.0,M,-34.1,M,,0000*7D
$GNGGA,143755.00,4228.21477,N,07503.88384,W,2,12,0.73,436.0,M,-34.1,M,,0000*7A
$GNGGA,143756.00,4228.21476,N,07503.88388,W,2,12,0.73,435.9,M,-34.1,M,,0000*7E
$GNGGA,143757.00,4228.21476,N,07503.88390,W,2,12,0.73,435.8,M,-34.1,M,,0000*77
$GNGGA,143758.00,4228.21477,N,07503.88397,W,2,12,0.73,435.7,M,-34.1,M,,0000*71
$GNGGA,143759.00,4228.21477,N,07503.88399,W,2,12,0.73,435.7,M,-34.1,M,,0000*7E
$GNGGA,143800.00,4228.21478,N,07503.88401,W,2,12,0.73,435.7,M,-34.1,M,,0000*74
$GNGGA,143801.00,4228.21479,N,07503.88403,W,2,12,0.73,435.7,M,-34.1,M,,0000*76
$GNGGA,143802.00,4228.21478,N,07503.88400,W,2,12,0.73,435.8,M,-34.1,M,,0000*78
$GNGGA,143803.00,4228.21476,N,07503.88397,W,2,12,0.73,435.9,M,-34.1,M,,0000*7F
$GNGGA,143804.00,4228.21477,N,07503.88400,W,2,12,0.73,436.0,M,-34.1,M,,0000*7A
$GNGGA,143805.00,4228.21478,N,07503.88400,W,2,12,0.73,436.1,M,-34.1,M,,0000*75
$GNGGA,143806.00,4228.21478,N,07503.88403,W,2,12,0.73,436.2,M,-34.1,M,,0000*76
$GNGGA,143807.00,4228.21477,N,07503.88401,W,2,12,0.73,436.6,M,-34.1,M,,0000*7E
$GNGGA,143808.00,4228.21477,N,07503.88398,W,2,12,0.73,436.6,M,-34.1,M,,0000*76
$GNGGA,143809.00,4228.21477,N,07503.88396,W,2,12,0.73,436.8,M,-34.1,M,,0000*77
$GNGGA,143810.00,4228.21476,N,07503.88399,W,2,12,0.73,437.0,M,-34.1,M,,0000*78
$GNGGA,143811.00,4228.21474,N,07503.88406,W,2,12,0.73,437.0,M,-34.1,M,,0000*7A
$GNGGA,143812.00,4228.21473,N,07503.88413,W,2,12,0.73,436.9,M,-34.1,M,,0000*72
$GNGGA,143813.00,4228.21474,N,07503.88424,W,2,12,0.73,436.9,M,-34.1,M,,0000*70
$GNGGA,143814.00,4228.21473,N,07503.88425,W,2,12,0.73,436.9,M,-34.1,M,,0000*71
$GNGGA,143815.00,4228.21474,N,07503.88425,W,2,12,0.73,436.9,M,-34.1,M,,0000*77
$GNGGA,143816.00,4228.21475,N,07503.88423,W,2,12,0.73,436.9,M,-34.1,M,,0000*73
$GNGGA,143817.00,4228.21476,N,07503.88423,W,2,12,0.73,437.0,M,-34.1,M,,0000*79
$GNGGA,143818.00,4228.21476,N,07503.88422,W,2,12,0.73,437.0,M,-34.1,M,,0000*77
$GNGGA,143819.00,4228.21456,N,07503.88399,W,2,12,0.73,437.4,M,-34.1,M,,0000*77
$GNGGA,143820.00,4228.21469,N,07503.88385,W,2,12,0.73,437.1,M,-34.1,M,,0000*79
$GNGGA,143821.00,4228.21481,N,07503.88369,W,2,12,0.73,437.0,M,-34.1,M,,0000*7D
$GNGGA,143822.00,4228.21479,N,07503.88368,W,2,12,0.73,437.0,M,-34.1,M,,0000*78
$GNGGA,143823.00,4228.21465,N,07503.88384,W,2,12,0.73,437.1,M,-34.1,M,,0000*77
$GNGGA,143824.00,4228.21464,N,07503.88389,W,2,12,0.73,437.2,M,-34.1,M,,0000*7F
$GNGGA,143825.00,4228.21457,N,07503.88379,W,2,12,0.73,437.4,M,-34.1,M,,0000*77
$GNGGA,143826.00,4228.21449,N,07503.88381,W,2,11,0.85,437.8,M,-34.1,M,,0000*7A
$GNGGA,143827.00,4228.21450,N,07503.88383,W,2,10,0.88,437.8,M,-34.1,M,,0000*7D
$GNGGA,143828.00,4228.21453,N,07503.88382,W,2,11,0.85,437.9,M,-34.1,M,,0000*7D
$GNGGA,143829.00,4228.21454,N,07503.88383,W,2,12,0.75,437.9,M,-34.1,M,,0000*76
$GNGGA,143830.00,4228.21453,N,07503.88386,W,2,12,0.73,438.0,M,-34.1,M,,0000*7C
$GNGGA,143831.00,4228.21456,N,07503.88398,W,2,12,0.73,438.0,M,-34.1,M,,0000*77
$GNGGA,143832.00,4228.21472,N,07503.88394,W,2,12,0.73,437.9,M,-34.1,M,,0000*78
$GNGGA,143833.00,4228.21481,N,07503.88397,W,2,12,0.79,437.7,M,-34.1,M,,0000*72
$GNGGA,143834.00,4228.21482,N,07503.88397,W,2,10,0.79,437.7,M,-34.1,M,,0000*74
$GNGGA,143835.00,4228.21485,N,07503.88395,W,1,11,0.75,437.8,M,-34.1,M,,*71
$GNGGA,143836.00,4228.21487,N,07503.88392,W,1,11,0.75,437.9,M,-34.1,M,,*76
$GNGGA,143837.00,4228.21480,N,07503.88401,W,1,12,0.74,437.9,M,-34.1,M,,*7F
$GNGGA,143838.00,4228.21472,N,07503.88411,W,1,12,0.74,437.8,M,-34.1,M,,*7D
$GNGGA,143839.00,4228.21466,N,07503.88412,W,1,12,0.69,437.8,M,-34.1,M,,*76
$GNGGA,143840.00,4228.21451,N,07503.88421,W,1,12,0.69,437.8,M,-34.1,M,,*7C
$GNGGA,143841.00,4228.21448,N,07503.88422,W,1,12,0.69,437.8,M,-34.1,M,,*76
$GNGGA,143842.00,4228.21450,N,07503.88424,W,1,12,0.72,437.7,M,-34.1,M,,*7F
$GNGGA,143843.00,4228.21437,N,07503.88422,W,1,12,0.72,437.8,M,-34.1,M,,*76
$GNGGA,143844.00,4228.21423,N,07503.88417,W,1,12,0.72,437.9,M,-34.1,M,,*73
$GNGGA,143845.00,4228.21418,N,07503.88421,W,1,12,0.72,437.8,M,-34.1,M,,*7E
$GNGGA,143846.00,4228.21412,N,07503.88423,W,1,12,0.69,437.8,M,-34.1,M,,*7F
$GNGGA,143847.00,4228.21409,N,07503.88427,W,1,12,0.72,437.6,M,-34.1,M,,*74
$GNGGA,143848.00,4228.21404,N,07503.88427,W,1,12,0.69,437.5,M,-34.1,M,,*7F
$GNGGA,143849.00,4228.21402,N,07503.88428,W,1,12,0.69,437.5,M,-34.1,M,,*77
$GNGGA,143850.00,4228.21404,N,07503.88426,W,1,12,0.69,437.5,M,-34.1,M,,*77
$GNGGA,143851.00,4228.21401,N,07503.88424,W,1,12,0.69,437.6,M,-34.1,M,,*72
$GNGGA,143852.00,4228.21402,N,07503.88426,W,1,12,0.69,437.6,M,-34.1,M,,*70
$GNGGA,143853.00,4228.21406,N,07503.88429,W,1,12,0.69,437.6,M,-34.1,M,,*7A
$GNGGA,143854.00,4228.21410,N,07503.88431,W,1,12,0.72,437.6,M,-34.1,M,,*79
$GNGGA,143855.00,4228.21407,N,07503.88426,W,1,12,0.72,437.9,M,-34.1,M,,*77
$GNGGA,143856.00,4228.21403,N,07503.88426,W,1,12,0.72,438.0,M,-34.1,M,,*76
$GNGGA,143857.00,4228.21401,N,07503.88423,W,1,12,0.69,438.1,M,-34.1,M,,*7B
$GNGGA,143858.00,4228.21401,N,07503.88421,W,1,12,0.72,438.1,M,-34.1,M,,*7C
$GNGGA,143859.00,4228.21411,N,07503.88422,W,2,12,0.72,438.1,M,-34.1,M,,0000*7C
$GNGGA,143900.00,4228.21416,N,07503.88420,W,2,12,0.72,438.2,M,-34.1,M,,0000*77
$GNGGA,143901.00,4228.21420,N,07503.88416,W,2,12,0.72,438.2,M,-34.1,M,,0000*76
$GNGGA,143902.00,4228.21425,N,07503.88406,W,2,12,0.69,438.4,M,-34.1,M,,0000*7D
$GNGGA,143903.00,4228.21419,N,07503.88396,W,2,12,0.69,438.5,M,-34.1,M,,0000*7C
$GNGGA,143904.00,4228.21420,N,07503.88396,W,2,12,0.69,438.4,M,-34.1,M,,0000*70
$GNGGA,143905.00,4228.21422,N,07503.88395,W,2,12,0.90,438.4,M,-34.1,M,,0000*76
$GNGGA,143906.00,4228.21428,N,07503.88399,W,2,12,0.90,438.2,M,-34.1,M,,0000*75
$GNGGA,143907.00,4228.21431,N,07503.88400,W,2,12,0.90,438.1,M,-34.1,M,,0000*78
$GNGGA,143908.00,4228.21431,N,07503.88395,W,2,12,0.73,438.0,M,-34.1,M,,0000*70
$GNGGA,143909.00,4228.21432,N,07503.88393,W,2,12,0.73,437.9,M,-34.1,M,,0000*72
$GNGGA,143910.00,4228.21434,N,07503.88390,W,2,12,0.90,437.8,M,-34.1,M,,0000*73
$GNGGA,143911.00,4228.21432,N,07503.88388,W,2,12,0.73,437.8,M,-34.1,M,,0000*70
$GNGGA,143912.00,4228.21428,N,07503.88383,W,2,12,0.73,438.0,M,-34.1,M,,0000*74
$GNGGA,143913.00,4228.21438,N,07503.88407,W,2,12,0.73,438.0,M,-34.1,M,,0000*7F
$GNGGA,143914.00,4228.21448,N,07503.88495,W,2,12,0.73,437.9,M,-34.1,M,,0000*72
$GNGGA,143915.00,4228.21429,N,07503.88632,W,2,12,0.72,438.1,M,-34.1,M,,0000*7D
$GNGGA,143916.00,4228.21361,N,07503.88709,W,2,12,0.72,438.7,M,-34.1,M,,0000*7A
$GNGGA,143917.00,4228.21320,N,07503.88772,W,2,12,0.72,438.6,M,-34.1,M,,0000*73
$GNGGA,143918.00,4228.21312,N,07503.88790,W,2,12,0.72,438.5,M,-34.1,M,,0000*72
$GNGGA,143919.00,4228.21309,N,07503.88798,W,2,12,0.69,438.4,M,-34.1,M,,0000*7A
$GNGGA,143920.00,4228.21355,N,07503.88811,W,2,12,0.69,438.2,M,-34.1,M,,0000*71
$GNGGA,143921.00,4228.21501,N,07503.88849,W,2,12,0.69,438.2,M,-34.1,M,,0000*7A
$GNGGA,143922.00,4228.21718,N,07503.88904,W,2,12,0.69,438.3,M,-34.1,M,,0000*7A
$GNGGA,143923.00,4228.21950,N,07503.88964,W,2,12,0.72,438.5,M,-34.1,M,,0000*73
$GNGGA,143924.00,4228.22158,N,07503.88990,W,2,12,0.72,438.7,M,-34.1,M,,0000*7E
$GNGGA,143925.00,4228.22317,N,07503.88952,W,2,12,0.69,438.7,M,-34.1,M,,0000*72
$GNGGA,143926.00,4228.22432,N,07503.88845,W,2,12,0.80,438.8,M,-34.1,M,,0000*7E
$GNGGA,143927.00,4228.22506,N,07503.88689,W,2,12,0.72,438.8,M,-34.1,M,,0000*7A
$GNGGA,143928.00,4228.22536,N,07503.88523,W,2,12,0.72,438.7,M,-34.1,M,,0000*7A
$GNGGA,143929.00,4228.22555,N,07503.88397,W,1,12,0.69,438.8,M,-34.1,M,,*71
$GNGGA,143930.00,4228.22571,N,07503.88270,W,1,12,0.69,438.7,M,-34.1,M,,*78
$GNGGA,143931.00,4228.22624,N,07503.88100,W,1,12,0.69,439.0,M,-34.1,M,,*78
$GNGGA,143932.00,4228.22757,N,07503.87960,W,1,12,0.69,438.9,M,-34.1,M,,*77
$GNGGA,143933.00,4228.22942,N,07503.87851,W,1,12,0.69,439.4,M,-34.1,M,,*73
$GNGGA,143934.00,4228.23195,N,07503.87804,W,1,12,0.69,439.8,M,-34.1,M,,*7B
$GNGGA,143935.00,4228.23493,N,07503.87769,W,1,12,0.69,439.9,M,-34.1,M,,*7C
$GNGGA,143936.00,4228.23819,N,07503.87688,W,1,12,0.69,440.1,M,-34.1,M,,*79
$GNGGA,143937.00,4228.24152,N,07503.87525,W,1,12,0.72,440.6,M,-34.1,M,,*70
$GNGGA,143938.00,4228.24462,N,07503.87296,W,1,12,0.69,440.8,M,-34.1,M,,*72
$GNGGA,143939.00,4228.24765,N,07503.86997,W,1,12,0.69,441.2,M,-34.1,M,,*77
$GNGGA,143940.00,4228.25048,N,07503.86638,W,1,12,0.72,441.6,M,-34.1,M,,*74
$GNGGA,143941.00,4228.25300,N,07503.86228,W,1,12,0.72,442.0,M,-34.1,M,,*7A
$GNGGA,143942.00,4228.25508,N,07503.85770,W,1,12,0.72,442.4,M,-34.1,M,,*78
$GNGGA,143943.00,4228.25667,N,07503.85267,W,1,12,0.69,443.0,M,-34.1,M,,*7F
$GNGGA,143944.00,4228.25774,N,07503.84730,W,1,12,0.69,443.6,M,-34.1,M,,*7B
$GNGGA,143945.00,4228.25840,N,07503.84158,W,1,12,0.69,444.1,M,-34.1,M,,*7A
$GNGGA,143946.00,4228.25902,N,07503.83556,W,1,12,0.69,444.3,M,-34.1,M,,*71
$GNGGA,143947.00,4228.25957,N,07503.82910,W,1,12,0.69,444.3,M,-34.1,M,,*7F
$GNGGA,143948.00,4228.26020,N,07503.82245,W,1,12,0.69,444.3,M,-34.1,M,,*71
$GNGGA,143949.00,4228.26079,N,07503.81559,W,1,12,0.69,444.2,M,-34.1,M,,*74
$GNGGA,143950.00,4228.26124,N,07503.80870,W,1,12,0.69,444.4,M,-34.1,M,,*74
$GNGGA,143951.00,4228.26184,N,07503.80181,W,1,12,0.69,444.4,M,-34.1,M,,*78
$GNGGA,143952.00,4228.26247,N,07503.79482,W,1,12,0.69,444.3,M,-34.1,M,,*70
$GNGGA,143953.00,4228.26319,N,07503.78785,W,1,12,0.69,444.2,M,-34.1,M,,*7F
$GNGGA,143954.00,4228.26374,N,07503.78099,W,1,12,0.69,444.1,M,-34.1,M,,*7A
$GNGGA,143955.00,4228.26390,N,07503.77455,W,1,12,0.80,443.7,M,-34.1,M,,*7C
$GNGGA,143956.00,4228.26348,N,07503.76855,W,1,12,0.69,443.3,M,-34.1,M,,*74
$GNGGA,143957.00,4228.26235,N,07503.76300,W,1,12,0.69,442.6,M,-34.1,M,,*71
$GNGGA,143958.00,4228.26031,N,07503.75764,W,1,12,0.69,442.0,M,-34.1,M,,*7B
$GNGGA,143959.00,4228.25750,N,07503.75232,W,1,12,0.80,441.5,M,-34.1,M,,*7E
$GNGGA,144000.00,4228.25395,N,07503.74766,W,1,12,0.78,441.1,M,-34.1,M,,*77
$GNGGA,144001.00,4228.24984,N,07503.74397,W,1,12,0.78,440.2,M,-34.1,M,,*75
$GNGGA,144002.00,4228.24525,N,07503.74070,W,1,12,0.78,439.9,M,-34.1,M,,*7E
$GNGGA,144003.00,4228.24055,N,07503.73762,W,1,12,0.78,439.3,M,-34.1,M,,*74
$GNGGA,144004.00,4228.23588,N,07503.73449,W,1,12,0.78,438.7,M,-34.1,M,,*7E
$GNGGA,144005.00,4228.23138,N,07503.73137,W,1,12,0.78,438.2,M,-34.1,M,,*79
$GNGGA,144006.00,4228.22743,N,07503.72786,W,1,12,0.78,437.7,M,-34.1,M,,*76
$GNGGA,144007.00,4228.22417,N,07503.72366,W,1,12,0.81,437.2,M,-34.1,M,,*7C
$GNGGA,144008.00,4228.22147,N,07503.71853,W,1,12,0.78,437.0,M,-34.1,M,,*79
$GNGGA,144009.00,4228.21935,N,07503.71251,W,1,12,0.78,436.2,M,-34.1,M,,*7D
$GNGGA,144010.00,4228.21787,N,07503.70576,W,1,12,0.78,435.4,M,-34.1,M,,*74
$GNGGA,144011.00,4228.21726,N,07503.69852,W,1,12,0.78,434.6,M,-34.1,M,,*7E
$GNGGA,144012.00,4228.21744,N,07503.69086,W,1,12,0.78,433.6,M,-34.1,M,,*7F
$GNGGA,144013.00,4228.21799,N,07503.68289,W,1,12,0.69,432.3,M,-34.1,M,,*76
$GNGGA,144014.00,4228.21865,N,07503.67450,W,1,12,1.02,431.1,M,-34.1,M,,*7D
$GNGGA,144015.00,4228.21943,N,07503.66588,W,1,12,0.81,430.0,M,-34.1,M,,*76
$GNGGA,144016.00,4228.22032,N,07503.65708,W,1,12,0.82,428.9,M,-34.1,M,,*73
$GNGGA,144017.00,4228.22110,N,07503.64789,W,1,12,1.23,427.7,M,-34.1,M,,*70
$GNGGA,144018.00,4228.22180,N,07503.63860,W,1,12,0.98,426.5,M,-34.1,M,,*7B
$GNGGA,144019.00,4228.22239,N,07503.62949,W,1,12,0.98,425.5,M,-34.1,M,,*73
$GNGGA,144020.00,4228.22301,N,07503.62044,W,1,12,0.98,424.4,M,-34.1,M,,*77
$GNGGA,144021.00,4228.22365,N,07503.61113,W,1,12,0.98,423.8,M,-34.1,M,,*7F
$GNGGA,144022.00,4228.22438,N,07503.60212,W,1,12,0.80,422.9,M,-34.1,M,,*79
$GNGGA,144023.00,4228.22526,N,07503.59375,W,1,12,0.80,422.2,M,-34.1,M,,*77
$GNGGA,144024.00,4228.22629,N,07503.58563,W,1,12,0.80,421.4,M,-34.1,M,,*79
$GNGGA,144025.00,4228.22747,N,07503.57747,W,1,12,0.80,420.8,M,-34.1,M,,*77
$GNGGA,144026.00,4228.22890,N,07503.56931,W,1,12,0.69,420.1,M,-34.1,M,,*71
$GNGGA,144027.00,4228.23059,N,07503.56105,W,1,12,0.69,419.3,M,-34.1,M,,*7B
$GNGGA,144028.00,4228.23227,N,07503.55257,W,1,12,0.69,418.5,M,-34.1,M,,*7F
$GNGGA,144029.00,4228.23408,N,07503.54404,W,1,12,0.69,417.3,M,-34.1,M,,*7D
$GNGGA,144030.00,4228.23582,N,07503.53546,W,1,12,0.69,415.6,M,-34.1,M,,*71
$GNGGA,144031.00,4228.23762,N,07503.52708,W,1,12,0.69,415.0,M,-34.1,M,,*73
$GNGGA,144032.00,4228.23922,N,07503.51905,W,1,12,0.69,413.2,M,-34.1,M,,*7E
$GNGGA,144033.00,4228.24085,N,07503.51082,W,1,12,0.80,411.6,M,-34.1,M,,*7B
$GNGGA,144034.00,4228.24263,N,07503.50246,W,1,12,0.83,410.7,M,-34.1,M,,*7E
$GNGGA,144035.00,4228.24427,N,07503.49456,W,1,12,0.83,409.6,M,-34.1,M,,*7F
$GNGGA,144036.00,4228.24594,N,07503.48702,W,1,12,0.83,408.6,M,-34.1,M,,*77
$GNGGA,144037.00,4228.24808,N,07503.48023,W,1,12,0.83,406.5,M,-34.1,M,,*77
$GNGGA,144038.00,4228.25119,N,07503.47372,W,1,12,0.71,404.9,M,-34.1,M,,*7B
$GNGGA,144039.00,4228.25520,N,07503.46776,W,1,12,0.83,403.2,M,-34.1,M,,*74
$GNGGA,144040.00,4228.25931,N,07503.46222,W,1,12,0.80,400.7,M,-34.1,M,,*77
$GNGGA,144041.00,4228.26387,N,07503.45656,W,1,12,0.78,400.0,M,-34.1,M,,*76
$GNGGA,144042.00,4228.26915,N,07503.45121,W,1,12,0.78,400.0,M,-34.1,M,,*73
$GNGGA,144043.00,4228.27431,N,07503.44600,W,1,12,0.78,399.4,M,-34.1,M,,*7E
$GNGGA,144044.00,4228.27954,N,07503.44092,W,1,12,0.78,398.1,M,-34.1,M,,*7E
$GNGGA,144045.00,4228.28489,N,07503.43574,W,1,12,0.78,397.3,M,-34.1,M,,*7A
$GNGGA,144046.00,4228.29001,N,07503.43050,W,1,12,0.73,395.5,M,-34.1,M,,*70
$GNGGA,144047.00,4228.29547,N,07503.42520,W,1,12,0.92,394.9,M,-34.1,M,,*77
$GNGGA,144048.00,4228.30118,N,07503.41994,W,1,12,0.92,394.7,M,-34.1,M,,*70
$GNGGA,144049.00,4228.30690,N,07503.41461,W,1,12,0.92,394.6,M,-34.1,M,,*70
$GNGGA,144050.00,4228.31293,N,07503.40912,W,1,12,0.92,395.3,M,-34.1,M,,*72
$GNGGA,144051.00,4228.31846,N,07503.40342,W,1,12,1.05,395.3,M,-34.1,M,,*71
$GNGGA,144052.00,4228.32345,N,07503.39730,W,1,12,1.05,395.4,M,-34.1,M,,*71
$GNGGA,144053.00,4228.32805,N,07503.39100,W,1,12,1.05,395.6,M,-34.1,M,,*78
$GNGGA,144054.00,4228.33227,N,07503.38457,W,1,11,1.07,395.6,M,-34.1,M,,*73
$GNGGA,144055.00,4228.33630,N,07503.37809,W,1,12,1.05,395.7,M,-34.1,M,,*78
$GNGGA,144056.00,4228.34012,N,07503.37161,W,1,12,1.05,395.9,M,-34.1,M,,*73
$GNGGA,144057.00,4228.34321,N,07503.36512,W,1,12,0.81,395.1,M,-34.1,M,,*75
$GNGGA,144058.00,4228.34648,N,07503.35871,W,1,12,1.05,394.7,M,-34.1,M,,*71
$GNGGA,144059.00,4228.34959,N,07503.35220,W,1,12,0.88,394.8,M,-34.1,M,,*7A
$GNGGA,144100.00,4228.35230,N,07503.34564,W,1,12,0.88,394.8,M,-34.1,M,,*74
$GNGGA,144101.00,4228.35486,N,07503.33888,W,1,12,0.88,395.4,M,-34.1,M,,*7B
$GNGGA,144102.00,4228.35625,N,07503.33192,W,1,12,1.07,395.3,M,-34.1,M,,*70
$GNGGA,144103.00,4228.35635,N,07503.32490,W,1,12,0.80,395.0,M,-34.1,M,,*7B
$GNGGA,144104.00,4228.35584,N,07503.31801,W,1,12,0.84,394.9,M,-34.1,M,,*7E
$GNGGA,144105.00,4228.35427,N,07503.31119,W,1,12,0.80,394.4,M,-34.1,M,,*7E
$GNGGA,144106.00,4228.35254,N,07503.30437,W,1,12,0.80,393.7,M,-34.1,M,,*73
$GNGGA,144107.00,4228.35072,N,07503.29737,W,1,12,0.80,393.1,M,-34.1,M,,*79
$GNGGA,144108.00,4228.34897,N,07503.29016,W,1,12,0.80,392.6,M,-34.1,M,,*76
$GNGGA,144109.00,4228.34713,N,07503.28294,W,1,12,0.80,391.7,M,-34.1,M,,*7F
$GNGGA,144110.00,4228.34534,N,07503.27621,W,1,12,0.80,391.0,M,-34.1,M,,*72
$GNGGA,144111.00,4228.34378,N,07503.27039,W,1,12,0.69,390.3,M,-34.1,M,,*77
$GNGGA,144112.00,4228.34247,N,07503.26559,W,1,12,0.69,389.8,M,-34.1,M,,*78
$GNGGA,144113.00,4228.34132,N,07503.26186,W,1,12,0.71,389.5,M,-34.1,M,,*7A
$GNGGA,144114.00,4228.34040,N,07503.25969,W,1,12,0.71,389.1,M,-34.1,M,,*77
$GNGGA,144115.00,4228.33996,N,07503.25876,W,1,12,0.71,388.9,M,-34.1,M,,*75
$GNGGA,144116.00,4228.33942,N,07503.25783,W,1,12,0.80,388.8,M,-34.1,M,,*75
$GNGGA,144117.00,4228.33789,N,07503.25653,W,1,12,0.80,388.6,M,-34.1,M,,*7F
$GNGGA,144118.00,4228.33533,N,07503.25583,W,1,12,0.80,388.4,M,-34.1,M,,*7F
$GNGGA,144119.00,4228.33225,N,07503.25619,W,1,12,0.78,388.2,M,-34.1,M,,*7F
$GNGGA,144120.00,4228.32832,N,07503.25743,W,1,12,0.78,388.1,M,-34.1,M,,*75
$GNGGA,144121.00,4228.32321,N,07503.25882,W,1,12,0.78,387.7,M,-34.1,M,,*76
$GNGGA,144122.00,4228.31733,N,07503.26041,W,1,12,0.78,386.8,M,-34.1,M,,*7B
$GNGGA,144123.00,4228.31099,N,07503.26205,W,1,12,0.78,385.8,M,-34.1,M,,*7C
$GNGGA,144124.00,4228.30435,N,07503.26366,W,1,12,0.78,384.6,M,-34.1,M,,*73
$GNGGA,144125.00,4228.29757,N,07503.26531,W,1,12,0.78,383.9,M,-34.1,M,,*71
$GNGGA,144126.00,4228.29095,N,07503.26717,W,1,12,0.78,383.0,M,-34.1,M,,*74
$GNGGA,144127.00,4228.28425,N,07503.26897,W,1,12,0.78,382.2,M,-34.1,M,,*7F
$GNGGA,144128.00,4228.27734,N,07503.27074,W,1,12,0.78,381.7,M,-34.1,M,,*7E
$GNGGA,144129.00,4228.27041,N,07503.27254,W,1,12,0.78,381.4,M,-34.1,M,,*79
$GNGGA,144130.00,4228.26372,N,07503.27448,W,1,12,0.78,380.5,M,-34.1,M,,*78
$GNGGA,144131.00,4228.25708,N,07503.27630,W,1,12,0.78,379.9,M,-34.1,M,,*74
$GNGGA,144132.00,4228.25032,N,07503.27794,W,1,12,0.78,379.6,M,-34.1,M,,*79
$GNGGA,144133.00,4228.24385,N,07503.28000,W,1,12,0.78,378.2,M,-34.1,M,,*76
$GNGGA,144134.00,4228.23720,N,07503.28179,W,1,12,0.99,377.2,M,-34.1,M,,*72
$GNGGA,144135.00,4228.23052,N,07503.28336,W,1,12,0.99,376.5,M,-34.1,M,,*7E
$GNGGA,144136.00,4228.22371,N,07503.28479,W,1,12,0.80,376.0,M,-34.1,M,,*7F
$GNGGA,144137.00,4228.21704,N,07503.28579,W,1,12,0.78,374.4,M,-34.1,M,,*7B
$GNGGA,144138.00,4228.20986,N,07503.28704,W,1,12,0.78,374.3,M,-34.1,M,,*7E
$GNGGA,144139.00,4228.20280,N,07503.28831,W,1,12,0.78,373.1,M,-34.1,M,,*7E
$GNGGA,144140.00,4228.19557,N,07503.28932,W,1,12,0.78,372.7,M,-34.1,M,,*72
$GNGGA,144141.00,4228.18836,N,07503.29039,W,1,12,0.80,372.3,M,-34.1,M,,*78
$GNGGA,144142.00,4228.18117,N,07503.29150,W,1,12,0.78,372.0,M,-34.1,M,,*7B
$GNGGA,144143.00,4228.17383,N,07503.29265,W,1,12,0.78,371.5,M,-34.1,M,,*79
$GNGGA,144144.00,4228.16639,N,07503.29384,W,1,12,0.78,371.2,M,-34.1,M,,*72
$GNGGA,144145.00,4228.15915,N,07503.29501,W,1,12,0.99,370.9,M,-34.1,M,,*7F
$GNGGA,144146.00,4228.15191,N,07503.29628,W,1,12,0.99,370.3,M,-34.1,M,,*7A
$GNGGA,144147.00,4228.14456,N,07503.29777,W,1,12,0.99,370.2,M,-34.1,M,,*7E
$GNGGA,144148.00,4228.13740,N,07503.29941,W,1,12,0.78,370.0,M,-34.1,M,,*74
$GNGGA,144149.00,4228.13050,N,07503.30126,W,1,12,0.78,369.6,M,-34.1,M,,*7C
$GNGGA,144150.00,4228.12364,N,07503.30307,W,1,12,0.78,369.2,M,-34.1,M,,*74
$GNGGA,144151.00,4228.11701,N,07503.30501,W,1,12,0.78,368.7,M,-34.1,M,,*75
$GNGGA,144152.00,4228.11024,N,07503.30735,W,1,12,0.78,368.8,M,-34.1,M,,*7C
$GNGGA,144153.00,4228.10376,N,07503.31015,W,1,12,0.78,368.6,M,-34.1,M,,*72
$GNGGA,144154.00,4228.09737,N,07503.31327,W,1,12,0.78,369.0,M,-34.1,M,,*79
$GNGGA,144155.00,4228.09141,N,07503.31689,W,1,12,0.78,368.7,M,-34.1,M,,*78
$GNGGA,144156.00,4228.08564,N,07503.32119,W,1,12,0.99,368.6,M,-34.1,M,,*7A
$GNGGA,144157.00,4228.08007,N,07503.32593,W,1,12,0.99,368.3,M,-34.1,M,,*78
$GNGGA,144158.00,4228.07450,N,07503.33092,W,1,12,0.80,368.2,M,-34.1,M,,*72
$GNGGA,144159.00,4228.06903,N,07503.33615,W,1,12,0.80,368.0,M,-34.1,M,,*72
$GNGGA,144200.00,4228.06355,N,07503.34144,W,1,12,0.80,367.9,M,-34.1,M,,*76
$GNGGA,144201.00,4228.05815,N,07503.34665,W,1,12,0.69,368.1,M,-34.1,M,,*7F
$GNGGA,144202.00,4228.05319,N,07503.35196,W,1,12,0.69,368.2,M,-34.1,M,,*72
$GNGGA,144203.00,4228.04848,N,07503.35758,W,1,12,0.73,368.9,M,-34.1,M,,*79
$GNGGA,144204.00,4228.04419,N,07503.36392,W,1,12,0.69,369.8,M,-34.1,M,,*7C
$GNGGA,144205.00,4228.04021,N,07503.37068,W,1,12,0.69,369.7,M,-34.1,M,,*7A
$GNGGA,144206.00,4228.03637,N,07503.37745,W,1,12,0.69,369.7,M,-34.1,M,,*77
$GNGGA,144207.00,4228.03242,N,07503.38409,W,1,12,0.69,370.0,M,-34.1,M,,*7B
$GNGGA,144208.00,4228.02814,N,07503.39040,W,1,12,0.78,370.6,M,-34.1,M,,*72
$GNGGA,144209.00,4228.02353,N,07503.39626,W,1,12,0.78,370.9,M,-34.1,M,,*72
$GNGGA,144210.00,4228.01842,N,07503.40161,W,1,12,0.78,371.5,M,-34.1,M,,*75
$GNGGA,144211.00,4228.01308,N,07503.40658,W,1,12,0.78,371.5,M,-34.1,M,,*7C
$GNGGA,144212.00,4228.00772,N,07503.41157,W,1,12,0.73,371.3,M,-34.1,M,,*73
$GNGGA,144213.00,4228.00241,N,07503.41674,W,1,12,0.73,371.1,M,-34.1,M,,*73
$GNGGA,144214.00,4227.99703,N,07503.42165,W,1,12,0.69,371.0,M,-34.1,M,,*76
$GNGGA,144215.00,4227.99147,N,07503.42609,W,1,12,0.69,370.6,M,-34.1,M,,*7B
$GNGGA,144216.00,4227.98582,N,07503.43025,W,1,12,0.80,370.0,M,-34.1,M,,*7C
$GNGGA,144217.00,4227.97996,N,07503.43363,W,1,12,0.80,368.9,M,-34.1,M,,*7A
$GNGGA,144218.00,4227.97368,N,07503.43669,W,1,12,0.80,368.4,M,-34.1,M,,*7C
$GNGGA,144219.00,4227.96717,N,07503.43961,W,1,12,0.69,368.0,M,-34.1,M,,*74
$GNGGA,144220.00,4227.96056,N,07503.44235,W,1,12,0.69,367.5,M,-34.1,M,,*7B
$GNGGA,144221.00,4227.95382,N,07503.44512,W,1,12,0.78,367.3,M,-34.1,M,,*77
$GNGGA,144222.00,4227.94719,N,07503.44792,W,1,12,0.78,366.8,M,-34.1,M,,*73
$GNGGA,144223.00,4227.94037,N,07503.45059,W,1,12,0.78,367.6,M,-34.1,M,,*77
$GNGGA,144224.00,4227.93389,N,07503.45315,W,1,12,0.78,367.4,M,-34.1,M,,*78
$GNGGA,144225.00,4227.92743,N,07503.45566,W,1,12,0.78,367.3,M,-34.1,M,,*7F
$GNGGA,144226.00,4227.92103,N,07503.45818,W,1,12,0.78,367.1,M,-34.1,M,,*78
$GNGGA,144227.00,4227.91462,N,07503.46074,W,1,12,0.81,367.2,M,-34.1,M,,*7C
$GNGGA,144228.00,4227.90850,N,07503.46323,W,1,12,0.78,366.4,M,-34.1,M,,*7F
$GNGGA,144229.00,4227.90230,N,07503.46555,W,1,12,0.78,366.4,M,-34.1,M,,*75
$GNGGA,144230.00,4227.89623,N,07503.46793,W,1,12,0.78,366.3,M,-34.1,M,,*7C
$GNGGA,144231.00,4227.89021,N,07503.46987,W,1,12,0.78,366.4,M,-34.1,M,,*75
$GNGGA,144232.00,4227.88407,N,07503.47086,W,1,12,0.78,366.4,M,-34.1,M,,*7E
$GNGGA,144233.00,4227.87781,N,07503.47111,W,1,12,0.78,366.2,M,-34.1,M,,*74
$GNGGA,144234.00,4227.87133,N,07503.47074,W,1,12,0.78,366.3,M,-34.1,M,,*7F
$GNGGA,144235.00,4227.86489,N,07503.47017,W,1,12,0.78,365.4,M,-34.1,M,,*7A
$GNGGA,144236.00,4227.85823,N,07503.46939,W,1,12,0.78,365.0,M,-34.1,M,,*76
$GNGGA,144237.00,4227.85135,N,07503.46847,W,1,12,0.78,365.2,M,-34.1,M,,*73
$GNGGA,144238.00,4227.84462,N,07503.46757,W,1,12,0.78,364.7,M,-34.1,M,,*70
$GNGGA,144239.00,4227.83793,N,07503.46678,W,1,12,0.78,364.0,M,-34.1,M,,*70
$GNGGA,144240.00,4227.83121,N,07503.46614,W,1,12,0.78,363.4,M,-34.1,M,,*78
$GNGGA,144241.00,4227.82462,N,07503.46551,W,1,12,0.78,362.6,M,-34.1,M,,*7B
$GNGGA,144242.00,4227.81808,N,07503.46492,W,1,12,0.78,361.7,M,-34.1,M,,*77
$GNGGA,144243.00,4227.81142,N,07503.46406,W,1,12,0.69,360.6,M,-34.1,M,,*7C
$GNGGA,144244.00,4227.80463,N,07503.46284,W,1,12,0.69,359.5,M,-34.1,M,,*79
$GNGGA,144245.00,4227.79778,N,07503.46157,W,1,12,0.69,358.2,M,-34.1,M,,*7C
$GNGGA,144246.00,4227.79072,N,07503.46048,W,1,12,0.69,356.8,M,-34.1,M,,*79
$GNGGA,144247.00,4227.78338,N,07503.45946,W,1,12,0.69,355.8,M,-34.1,M,,*73
$GNGGA,144248.00,4227.77582,N,07503.45840,W,1,12,0.69,354.9,M,-34.1,M,,*73
$GNGGA,144249.00,4227.76828,N,07503.45741,W,1,12,0.78,354.3,M,-34.1,M,,*7A
$GNGGA,144250.00,4227.76099,N,07503.45634,W,1,12,0.78,353.3,M,-34.1,M,,*74
$GNGGA,144251.00,4227.75357,N,07503.45534,W,1,12,0.69,352.9,M,-34.1,M,,*7F
$GNGGA,144252.00,4227.74631,N,07503.45434,W,1,12,0.69,352.5,M,-34.1,M,,*75
$GNGGA,144253.00,4227.73899,N,07503.45335,W,1,12,0.78,352.4,M,-34.1,M,,*78
$GNGGA,144254.00,4227.73165,N,07503.45257,W,1,12,0.78,352.6,M,-34.1,M,,*72
$GNGGA,144255.00,4227.72451,N,07503.45198,W,1,12,0.78,352.2,M,-34.1,M,,*74
$GNGGA,144256.00,4227.71753,N,07503.45131,W,1,12,0.78,351.9,M,-34.1,M,,*7E
$GNGGA,144257.00,4227.71082,N,07503.45045,W,1,12,0.78,351.5,M,-34.1,M,,*7A
$GNGGA,144258.00,4227.70457,N,07503.44970,W,1,12,0.78,350.9,M,-34.1,M,,*7B
$GNGGA,144259.00,4227.69885,N,07503.44889,W,1,12,0.81,350.6,M,-34.1,M,,*7F
$GNGGA,144300.00,4227.69321,N,07503.44817,W,1,12,0.81,349.7,M,-34.1,M,,*79
$GNGGA,144301.00,4227.68740,N,07503.44743,W,1,12,0.73,348.5,M,-34.1,M,,*7A
$GNGGA,144302.00,4227.68126,N,07503.44662,W,1,12,0.73,347.9,M,-34.1,M,,*7E
$GNGGA,144303.00,4227.67475,N,07503.44577,W,1,12,0.73,348.3,M,-34.1,M,,*71
$GNGGA,144304.00,4227.66819,N,07503.44501,W,1,12,0.73,348.5,M,-34.1,M,,*76
$GNGGA,144305.00,4227.66156,N,07503.44411,W,1,12,0.73,348.4,M,-34.1,M,,*74
$GNGGA,144306.00,4227.65483,N,07503.44313,W,1,12,0.69,348.7,M,-34.1,M,,*74
$GNGGA,144307.00,4227.64828,N,07503.44204,W,1,12,0.73,348.4,M,-34.1,M,,*76
$GNGGA,144308.00,4227.64226,N,07503.44114,W,1,12,0.73,347.8,M,-34.1,M,,*7C
$GNGGA,144309.00,4227.63666,N,07503.44029,W,1,12,0.73,347.4,M,-34.1,M,,*79
$GNGGA,144310.00,4227.63166,N,07503.43951,W,1,12,0.73,347.3,M,-34.1,M,,*70
$GNGGA,144311.00,4227.62718,N,07503.43918,W,1,12,0.73,345.4,M,-34.1,M,,*77
$GNGGA,144312.00,4227.62234,N,07503.43860,W,1,12,0.73,345.4,M,-34.1,M,,*71
$GNGGA,144313.00,4227.61768,N,07503.43765,W,1,12,0.73,344.3,M,-34.1,M,,*73
$GNGGA,144314.00,4227.61282,N,07503.43690,W,1,12,0.69,343.6,M,-34.1,M,,*77
$GNGGA,144315.00,4227.60790,N,07503.43629,W,1,12,0.81,342.9,M,-34.1,M,,*7B
$GNGGA,144316.00,4227.60295,N,07503.43565,W,1,12,0.81,342.8,M,-34.1,M,,*72
$GNGGA,144317.00,4227.59826,N,07503.43499,W,1,12,0.78,342.8,M,-34.1,M,,*7F
$GNGGA,144318.00,4227.59459,N,07503.43436,W,1,12,0.78,342.5,M,-34.1,M,,*7C
$GNGGA,144319.00,4227.59207,N,07503.43403,W,1,12,0.78,342.6,M,-34.1,M,,*75
$GNGGA,144320.00,4227.59047,N,07503.43386,W,1,12,0.78,342.6,M,-34.1,M,,*73
$GNGGA,144321.00,4227.58939,N,07503.43387,W,1,12,0.78,343.0,M,-34.1,M,,*75
$GNGGA,144322.00,4227.58800,N,07503.43477,W,1,12,0.78,343.8,M,-34.1,M,,*7D
$GNGGA,144323.00,4227.58661,N,07503.43673,W,1,12,0.78,344.0,M,-34.1,M,,*7C
$GNGGA,144324.00,4227.58528,N,07503.43973,W,1,12,0.78,344.9,M,-34.1,M,,*73
$GNGGA,144325.00,4227.58444,N,07503.44434,W,1,12,0.78,344.7,M,-34.1,M,,*7E
$GNGGA,144326.00,4227.58383,N,07503.45024,W,1,12,0.78,345.0,M,-34.1,M,,*73
$GNGGA,144327.00,4227.58334,N,07503.45727,W,1,12,0.78,345.4,M,-34.1,M,,*7E
$GNGGA,144328.00,4227.58283,N,07503.46511,W,1,12,0.78,345.4,M,-34.1,M,,*78
$GNGGA,144329.00,4227.58219,N,07503.47336,W,1,12,0.81,345.4,M,-34.1,M,,*7E
$GNGGA,144330.00,4227.58151,N,07503.48173,W,1,12,0.81,345.3,M,-34.1,M,,*72
$GNGGA,144331.00,4227.58081,N,07503.49012,W,1,12,0.81,345.2,M,-34.1,M,,*79
$GNGGA,144332.00,4227.58011,N,07503.49837,W,1,12,0.81,345.4,M,-34.1,M,,*7A
$GNGGA,144333.00,4227.57947,N,07503.50630,W,1,12,0.73,345.6,M,-34.1,M,,*70
$GNGGA,144334.00,4227.57907,N,07503.51337,W,1,12,0.81,345.5,M,-34.1,M,,*7E
$GNGGA,144335.00,4227.57885,N,07503.51906,W,1,12,0.78,345.7,M,-34.1,M,,*78
$GNGGA,144336.00,4227.57791,N,07503.52364,W,1,12,0.78,345.3,M,-34.1,M,,*78
$GNGGA,144337.00,4227.57614,N,07503.52713,W,1,12,0.78,345.0,M,-34.1,M,,*72
$GNGGA,144338.00,4227.57334,N,07503.52943,W,1,12,0.78,344.9,M,-34.1,M,,*79
$GNGGA,144339.00,4227.56968,N,07503.53058,W,1,12,0.78,344.8,M,-34.1,M,,*79
$GNGGA,144340.00,4227.56518,N,07503.53067,W,1,12,0.78,344.9,M,-34.1,M,,*71
$GNGGA,144341.00,4227.55989,N,07503.53018,W,1,12,0.78,345.0,M,-34.1,M,,*77
$GNGGA,144342.00,4227.55411,N,07503.52948,W,1,12,0.81,345.0,M,-34.1,M,,*73
$GNGGA,144343.00,4227.54787,N,07503.52870,W,1,12,0.78,345.1,M,-34.1,M,,*72
$GNGGA,144344.00,4227.54130,N,07503.52779,W,1,12,0.78,345.3,M,-34.1,M,,*7B
$GNGGA,144345.00,4227.53471,N,07503.52692,W,1,12,0.78,345.1,M,-34.1,M,,*7B
$GNGGA,144346.00,4227.52817,N,07503.52587,W,1,12,0.81,345.0,M,-34.1,M,,*75
$GNGGA,144347.00,4227.52168,N,07503.52487,W,1,12,0.69,345.2,M,-34.1,M,,*70
$GNGGA,144348.00,4227.51515,N,07503.52390,W,1,12,0.69,345.0,M,-34.1,M,,*71
$GNGGA,144349.00,4227.50877,N,07503.52293,W,1,12,0.69,345.1,M,-34.1,M,,*7B
$GNGGA,144350.00,4227.50245,N,07503.52202,W,1,12,0.69,345.0,M,-34.1,M,,*71
$GNGGA,144351.00,4227.49621,N,07503.52102,W,1,12,0.69,344.7,M,-34.1,M,,*7B
$GNGGA,144352.00,4227.48999,N,07503.52014,W,1,12,0.69,344.3,M,-34.1,M,,*77
$GNGGA,144353.00,4227.48367,N,07503.51920,W,1,12,0.73,344.2,M,-34.1,M,,*7A
$GNGGA,144354.00,4227.47719,N,07503.51833,W,1,12,0.69,344.7,M,-34.1,M,,*72
$GNGGA,144355.00,4227.47069,N,07503.51736,W,1,12,0.69,344.7,M,-34.1,M,,*79
$GNGGA,144356.00,4227.46407,N,07503.51616,W,1,12,0.69,344.5,M,-34.1,M,,*76
$GNGGA,144357.00,4227.45758,N,07503.51474,W,1,12,0.69,344.2,M,-34.1,M,,*7C
$GNGGA,144358.00,4227.45117,N,07503.51328,W,1,12,0.69,344.3,M,-34.1,M,,*71
$GNGGA,144359.00,4227.44502,N,07503.51201,W,1,12,0.69,344.5,M,-34.1,M,,*7D
$GNGGA,144400.00,4227.43920,N,07503.51110,W,1,12,0.69,344.2,M,-34.1,M,,*79
$GNGGA,144401.00,4227.43367,N,07503.51021,W,1,12,0.71,344.2,M,-34.1,M,,*7B
$GNGGA,144402.00,4227.42852,N,07503.50875,W,2,12,0.69,344.8,M,-34.1,M,,0000*7C
$GNGGA,144403.00,4227.42346,N,07503.50760,W,2,12,0.69,345.0,M,-34.1,M,,0000*71
$GNGGA,144404.00,4227.41897,N,07503.50688,W,2,12,0.69,344.7,M,-34.1,M,,0000*73
$GNGGA,144405.00,4227.41493,N,07503.50719,W,2,12,0.69,343.9,M,-34.1,M,,0000*7A
$GNGGA,144406.00,4227.41093,N,07503.50895,W,2,12,0.69,344.1,M,-34.1,M,,0000*79
$GNGGA,144407.00,4227.40707,N,07503.51185,W,2,12,0.69,343.9,M,-34.1,M,,0000*75
$GNGGA,144408.00,4227.40317,N,07503.51560,W,2,12,0.69,344.0,M,-34.1,M,,0000*7E
$GNGGA,144409.00,4227.39927,N,07503.52008,W,2,12,0.69,344.2,M,-34.1,M,,0000*72
$GNGGA,144410.00,4227.39540,N,07503.52489,W,2,12,0.69,344.1,M,-34.1,M,,0000*79
$GNGGA,144411.00,4227.39144,N,07503.52965,W,2,12,0.69,343.8,M,-34.1,M,,0000*79
$GNGGA,144412.00,4227.38750,N,07503.53449,W,2,12,0.78,343.5,M,-34.1,M,,0000*77
$GNGGA,144413.00,4227.38349,N,07503.53938,W,2,12,0.81,343.2,M,-34.1,M,,0000*70
$GNGGA,144414.00,4227.37929,N,07503.54428,W,2,12,0.78,343.2,M,-34.1,M,,0000*79
$GNGGA,144415.00,4227.37513,N,07503.54927,W,2,12,0.78,343.1,M,-34.1,M,,0000*7C
$GNGGA,144416.00,4227.37106,N,07503.55431,W,2,12,0.78,342.8,M,-34.1,M,,0000*7C
$GNGGA,144417.00,4227.36704,N,07503.55923,W,2,12,0.78,342.7,M,-34.1,M,,0000*79
$GNGGA,144418.00,4227.36307,N,07503.56405,W,2,12,0.78,342.5,M,-34.1,M,,0000*79
$GNGGA,144419.00,4227.35917,N,07503.56880,W,2,12,0.99,342.4,M,-34.1,M,,0000*7F
$GNGGA,144420.00,4227.35527,N,07503.57360,W,2,12,0.78,342.5,M,-34.1,M,,0000*70
$GNGGA,144421.00,4227.35148,N,07503.57837,W,2,12,0.99,342.2,M,-34.1,M,,0000*7D
$GNGGA,144422.00,4227.34775,N,07503.58307,W,2,12,0.99,342.3,M,-34.1,M,,0000*71
$GNGGA,144423.00,4227.34401,N,07503.58746,W,2,12,1.01,342.3,M,-34.1,M,,0000*71
$GNGGA,144424.00,4227.34037,N,07503.59187,W,2,12,1.01,342.0,M,-34.1,M,,0000*7E
$GNGGA,144425.00,4227.33677,N,07503.59629,W,2,12,1.01,341.5,M,-34.1,M,,0000*7F
$GNGGA,144426.00,4227.33314,N,07503.60085,W,2,12,1.01,341.3,M,-34.1,M,,0000*70
$GNGGA,144427.00,4227.32941,N,07503.60561,W,2,12,1.01,341.1,M,-34.1,M,,0000*77
$GNGGA,144428.00,4227.32563,N,07503.61044,W,2,12,0.99,340.9,M,-34.1,M,,0000*7E
$GNGGA,144429.00,4227.32184,N,07503.61514,W,2,12,0.99,340.7,M,-34.1,M,,0000*7C
$GNGGA,144430.00,4227.31831,N,07503.61998,W,2,12,0.99,340.6,M,-34.1,M,,0000*79
$GNGGA,144431.00,4227.31468,N,07503.62460,W,2,12,0.99,340.6,M,-34.1,M,,0000*71
$GNGGA,144432.00,4227.31110,N,07503.62913,W,2,12,0.99,340.8,M,-34.1,M,,0000*7F
$GNGGA,144433.00,4227.30736,N,07503.63347,W,2,12,0.99,341.1,M,-34.1,M,,0000*7F
$GNGGA,144434.00,4227.30371,N,07503.63772,W,2,12,0.78,341.3,M,-34.1,M,,0000*70
$GNGGA,144435.00,4227.30010,N,07503.64184,W,2,12,0.78,341.8,M,-34.1,M,,0000*76
$GNGGA,144436.00,4227.29663,N,07503.64607,W,2,12,0.78,341.8,M,-34.1,M,,0000*73
$GNGGA,144437.00,4227.29313,N,07503.65019,W,2,12,0.78,341.6,M,-34.1,M,,0000*76
$GNGGA,144438.00,4227.28964,N,07503.65435,W,2,12,0.78,341.9,M,-34.1,M,,0000*77
$GNGGA,144439.00,4227.28628,N,07503.65865,W,2,12,0.78,342.0,M,-34.1,M,,0000*72
$GNGGA,144440.00,4227.28280,N,07503.66275,W,2,12,0.73,342.5,M,-34.1,M,,0000*7C
$GNGGA,144441.00,4227.27946,N,07503.66691,W,2,12,0.73,342.7,M,-34.1,M,,0000*7F
$GNGGA,144442.00,4227.27614,N,07503.67090,W,2,12,0.73,343.0,M,-34.1,M,,0000*74
$GNGGA,144443.00,4227.27290,N,07503.67491,W,2,12,0.80,343.1,M,-34.1,M,,0000*75
$GNGGA,144444.00,4227.26963,N,07503.67865,W,2,12,0.80,343.3,M,-34.1,M,,0000*71
$GNGGA,144445.00,4227.26637,N,07503.68242,W,2,12,0.83,343.2,M,-34.1,M,,0000*7C
$GNGGA,144446.00,4227.26306,N,07503.68642,W,2,12,0.83,343.4,M,-34.1,M,,0000*7A
$GNGGA,144447.00,4227.25982,N,07503.69026,W,2,12,0.83,343.8,M,-34.1,M,,0000*77
$GNGGA,144448.00,4227.25678,N,07503.69405,W,2,12,1.04,344.1,M,-34.1,M,,0000*77
$GNGGA,144449.00,4227.25377,N,07503.69780,W,2,12,0.80,344.2,M,-34.1,M,,0000*7C
$GNGGA,144450.00,4227.25065,N,07503.70155,W,2,12,0.80,344.5,M,-34.1,M,,0000*75
$GNGGA,144451.00,4227.24766,N,07503.70529,W,2,12,0.80,344.6,M,-34.1,M,,0000*7D
$GNGGA,144452.00,4227.24470,N,07503.70890,W,2,12,0.99,345.2,M,-34.1,M,,0000*78
$GNGGA,144453.00,4227.24203,N,07503.71251,W,2,12,0.80,345.6,M,-34.1,M,,0000*71
$GNGGA,144454.00,4227.23966,N,07503.71571,W,2,12,1.03,345.3,M,-34.1,M,,0000*73
$GNGGA,144455.00,4227.23772,N,07503.71837,W,2,12,0.84,345.4,M,-34.1,M,,0000*7F
$GNGGA,144456.00,4227.23559,N,07503.72047,W,2,12,0.84,345.7,M,-34.1,M,,0000*78
$GNGGA,144457.00,4227.23342,N,07503.72391,W,2,12,0.83,346.3,M,-34.1,M,,0000*7D
$GNGGA,144458.00,4227.23052,N,07503.72752,W,2,12,0.81,346.0,M,-34.1,M,,0000*7A
$GNGGA,144459.00,4227.22731,N,07503.73101,W,2,12,0.93,346.2,M,-34.1,M,,0000*78
$GNGGA,144500.00,4227.22414,N,07503.73472,W,2,12,0.93,346.6,M,-34.1,M,,0000*74
$GNGGA,144501.00,4227.22115,N,07503.73821,W,2,12,0.92,347.0,M,-34.1,M,,0000*7D
$GNGGA,144502.00,4227.21857,N,07503.74120,W,2,12,0.92,347.1,M,-34.1,M,,0000*7C
$GNGGA,144503.00,4227.21675,N,07503.74359,W,2,12,0.93,346.9,M,-34.1,M,,0000*77
$GNGGA,144504.00,4227.21527,N,07503.74526,W,2,12,0.86,347.1,M,-34.1,M,,0000*77
$GNGGA,144505.00,4227.21406,N,07503.74661,W,2,12,0.86,347.2,M,-34.1,M,,0000*77
$GNGGA,144506.00,4227.21314,N,07503.74765,W,2,12,0.76,347.4,M,-34.1,M,,0000*7C
$GNGGA,144507.00,4227.21294,N,07503.74847,W,2,12,0.73,346.9,M,-34.1,M,,0000*72
$GNGGA,144508.00,4227.21268,N,07503.74850,W,2,12,0.73,347.3,M,-34.1,M,,0000*73
$GNGGA,144509.00,4227.21277,N,07503.74868,W,2,12,0.76,347.5,M,-34.1,M,,0000*74
$GNGGA,144510.00,4227.21279,N,07503.74877,W,2,12,0.73,347.7,M,-34.1,M,,0000*7B
$GNGGA,144511.00,4227.21288,N,07503.74887,W,2,12,0.83,347.8,M,-34.1,M,,0000*7B
$GNGGA,144512.00,4227.21287,N,07503.74889,W,2,12,0.86,348.0,M,-34.1,M,,0000*7B
$GNGGA,144513.00,4227.21290,N,07503.74890,W,2,12,0.69,348.1,M,-34.1,M,,0000*74
$GNGGA,144514.00,4227.21302,N,07503.74901,W,2,12,0.83,348.1,M,-34.1,M,,0000*74
$GNGGA,144515.00,4227.21309,N,07503.74906,W,2,12,0.81,348.1,M,-34.1,M,,0000*7B
$GNGGA,144516.00,4227.21320,N,07503.74917,W,2,12,0.83,348.1,M,-34.1,M,,0000*71
$GNGGA,144517.00,4227.21331,N,07503.74930,W,2,12,0.80,348.0,M,-34.1,M,,0000*77
$GNGGA,144518.00,4227.21329,N,07503.74930,W,2,12,0.83,348.1,M,-34.1,M,,0000*73
$GNGGA,144519.00,4227.21317,N,07503.74913,W,2,12,0.69,348.0,M,-34.1,M,,0000*7B
$GNGGA,144520.00,4227.21307,N,07503.74915,W,2,12,0.69,348.1,M,-34.1,M,,0000*77
$GNGGA,144521.00,4227.21304,N,07503.74930,W,2,12,1.04,348.1,M,-34.1,M,,0000*78
$GNGGA,144522.00,4227.21312,N,07503.74949,W,2,12,0.84,348.0,M,-34.1,M,,0000*7A
$GNGGA,144523.00,4227.21307,N,07503.74955,W,2,12,0.73,348.1,M,-34.1,M,,0000*7B
$GNGGA,144524.00,4227.21302,N,07503.74955,W,2,12,0.87,347.9,M,-34.1,M,,0000*75
$GNGGA,144525.00,4227.21301,N,07503.74962,W,2,12,0.73,347.9,M,-34.1,M,,0000*78
$GNGGA,144526.00,4227.21286,N,07503.74953,W,2,12,0.77,348.0,M,-34.1,M,,0000*75
$GNGGA,144527.00,4227.21279,N,07503.74951,W,2,12,1.04,348.0,M,-34.1,M,,0000*73
$GNGGA,144528.00,4227.21275,N,07503.74945,W,2,12,0.73,348.0,M,-34.1,M,,0000*74
$GNGGA,144529.00,4227.21280,N,07503.74946,W,2,12,0.73,347.8,M,-34.1,M,,0000*7B
$GNGGA,144530.00,4227.21292,N,07503.74965,W,2,12,1.05,347.6,M,-34.1,M,,0000*7F
$GNGGA,144531.00,4227.21282,N,07503.74966,W,2,12,0.69,347.8,M,-34.1,M,,0000*79
$GNGGA,144532.00,4227.21292,N,07503.74976,W,2,12,0.69,347.6,M,-34.1,M,,0000*74
$GNGGA,144533.00,4227.21293,N,07503.74982,W,2,12,1.06,347.5,M,-34.1,M,,0000*74
$GNGGA,144534.00,4227.21288,N,07503.74984,W,2,12,0.69,347.6,M,-34.1,M,,0000*74
$GNGGA,144535.00,4227.21284,N,07503.74988,W,2,12,0.69,347.7,M,-34.1,M,,0000*74
$GNGGA,144536.00,4227.21285,N,07503.74993,W,2,12,1.06,347.6,M,-34.1,M,,0000*75
$GNGGA,144537.00,4227.21282,N,07503.74989,W,2,12,0.80,347.6,M,-34.1,M,,0000*77
$GNGGA,144538.00,4227.21273,N,07503.74976,W,2,12,0.84,347.6,M,-34.1,M,,0000*72
$GNGGA,144539.00,4227.21263,N,07503.74978,W,2,12,1.06,347.7,M,-34.1,M,,0000*76
$GNGGA,144540.00,4227.21269,N,07503.75018,W,2,12,0.73,347.5,M,-34.1,M,,0000*7D
$GNGGA,144541.00,4227.21212,N,07503.75088,W,2,12,0.73,347.6,M,-34.1,M,,0000*7A
$GNGGA,144542.00,4227.21110,N,07503.75222,W,2,12,1.02,347.5,M,-34.1,M,,0000*7E
$GNGGA,144543.00,4227.21016,N,07503.75381,W,2,12,0.72,347.3,M,-34.1,M,,0000*70
$GNGGA,144544.00,4227.20944,N,07503.75507,W,2,12,0.73,347.2,M,-34.1,M,,0000*70
$GNGGA,144545.00,4227.20878,N,07503.75619,W,2,12,0.84,347.2,M,-34.1,M,,0000*7B
$GNGGA,144546.00,4227.20786,N,07503.75751,W,2,12,0.77,347.2,M,-34.1,M,,0000*77
$GNGGA,144547.00,4227.20680,N,07503.75917,W,2,12,0.77,347.3,M,-34.1,M,,0000*7C
$GNGGA,144548.00,4227.20546,N,07503.76123,W,2,12,0.89,347.4,M,-34.1,M,,0000*70
$GNGGA,144549.00,4227.20390,N,07503.76347,W,2,12,0.77,347.5,M,-34.1,M,,0000*7C
$GNGGA,144550.00,4227.20201,N,07503.76631,W,2,12,0.77,347.7,M,-34.1,M,,0000*7B
$GNGGA,144551.00,4227.19956,N,07503.76932,W,2,12,0.86,348.1,M,-34.1,M,,0000*72
$GNGGA,144552.00,4227.19721,N,07503.77235,W,2,12,0.95,348.2,M,-34.1,M,,0000*73
$GNGGA,144553.00,4227.19476,N,07503.77517,W,2,12,0.95,348.8,M,-34.1,M,,0000*7E
$GNGGA,144554.00,4227.19218,N,07503.77859,W,2,12,0.95,348.5,M,-34.1,M,,0000*7D
$GNGGA,144555.00,4227.18869,N,07503.78188,W,2,12,0.77,349.5,M,-34.1,M,,0000*76
$GNGGA,144556.00,4227.18525,N,07503.78591,W,2,12,0.77,350.6,M,-34.1,M,,0000*77
$GNGGA,144557.00,4227.18155,N,07503.79010,W,2,12,0.88,351.9,M,-34.1,M,,0000*76
$GNGGA,144558.00,4227.17700,N,07503.79327,W,2,12,0.73,353.5,M,-34.1,M,,0000*7D
$GNGGA,144559.00,4227.17350,N,07503.79770,W,2,12,0.84,352.5,M,-34.1,M,,0000*72
$GNGGA,144600.00,4227.16961,N,07503.80211,W,2,12,1.02,352.0,M,-34.1,M,,0000*7A
$GNGGA,144601.00,4227.16526,N,07503.80644,W,2,12,0.80,351.5,M,-34.1,M,,0000*7D
$GNGGA,144602.00,4227.16076,N,07503.81040,W,2,12,0.80,350.7,M,-34.1,M,,0000*7E
$GNGGA,144603.00,4227.15618,N,07503.81410,W,2,12,0.80,349.5,M,-34.1,M,,0000*79
$GNGGA,144604.00,4227.15132,N,07503.81776,W,2,12,0.80,349.2,M,-34.1,M,,0000*75
$GNGGA,144605.00,4227.14618,N,07503.82101,W,2,12,0.69,349.3,M,-34.1,M,,0000*79
$GNGGA,144606.00,4227.14112,N,07503.82415,W,2,12,0.69,348.6,M,-34.1,M,,0000*73
$GNGGA,144607.00,4227.13605,N,07503.82707,W,2,12,0.69,347.6,M,-34.1,M,,0000*7B
$GNGGA,144608.00,4227.13059,N,07503.82962,W,2,12,0.69,346.8,M,-34.1,M,,0000*79
$GNGGA,144609.00,4227.12491,N,07503.83166,W,2,12,0.69,345.6,M,-34.1,M,,0000*79
$GNGGA,144610.00,4227.11899,N,07503.83320,W,2,12,0.69,344.6,M,-34.1,M,,0000*77
$GNGGA,144611.00,4227.11275,N,07503.83440,W,2,12,0.69,344.1,M,-34.1,M,,0000*78
$GNGGA,144612.00,4227.10630,N,07503.83526,W,2,12,0.73,343.2,M,-34.1,M,,0000*71
$GNGGA,144613.00,4227.09970,N,07503.83573,W,2,12,0.69,342.5,M,-34.1,M,,0000*7E
$GNGGA,144614.00,4227.09302,N,07503.83583,W,2,12,0.69,341.4,M,-34.1,M,,0000*7B
$GNGGA,144615.00,4227.08605,N,07503.83611,W,2,12,0.80,341.2,M,-34.1,M,,0000*70
$GNGGA,144616.00,4227.07886,N,07503.83622,W,2,12,0.80,341.3,M,-34.1,M,,0000*78
$GNGGA,144617.00,4227.07163,N,07503.83620,W,2,12,0.80,341.6,M,-34.1,M,,0000*7C
$GNGGA,144618.00,4227.06440,N,07503.83611,W,2,12,0.83,342.1,M,-34.1,M,,0000*73
$GNGGA,144619.00,4227.05721,N,07503.83634,W,2,12,0.83,342.6,M,-34.1,M,,0000*75
$GNGGA,144620.00,4227.05007,N,07503.83681,W,2,12,0.83,342.8,M,-34.1,M,,0000*7C
$GNGGA,144621.00,4227.04295,N,07503.83724,W,2,12,0.73,343.4,M,-34.1,M,,0000*79
$GNGGA,144622.00,4227.03580,N,07503.83739,W,2,12,0.69,343.0,M,-34.1,M,,0000*7D
$GNGGA,144623.00,4227.02868,N,07503.83738,W,2,12,0.69,342.3,M,-34.1,M,,0000*75
$GNGGA,144624.00,4227.02136,N,07503.83742,W,2,12,0.69,342.1,M,-34.1,M,,0000*7F
$GNGGA,144625.00,4227.01409,N,07503.83744,W,2,12,0.71,341.7,M,-34.1,M,,0000*7E
$GNGGA,144626.00,4227.00682,N,07503.83744,W,2,12,0.69,340.8,M,-34.1,M,,0000*7A
$GNGGA,144627.00,4226.99960,N,07503.83747,W,2,12,0.69,340.1,M,-34.1,M,,0000*73
$GNGGA,144628.00,4226.99255,N,07503.83763,W,2,12,0.69,339.3,M,-34.1,M,,0000*7B
$GNGGA,144629.00,4226.98558,N,07503.83776,W,2,12,0.69,338.5,M,-34.1,M,,0000*72
$GNGGA,144630.00,4226.97858,N,07503.83786,W,2,12,0.69,337.5,M,-34.1,M,,0000*78
$GNGGA,144631.00,4226.97154,N,07503.83796,W,2,12,0.69,336.4,M,-34.1,M,,0000*7D
$GNGGA,144632.00,4226.96446,N,07503.83804,W,2,12,0.69,335.4,M,-34.1,M,,0000*7E
$GNGGA,144633.00,4226.95752,N,07503.83808,W,2,12,0.69,334.3,M,-34.1,M,,0000*70
$GNGGA,144634.00,4226.95080,N,07503.83809,W,2,12,0.69,333.2,M,-34.1,M,,0000*78
$GNGGA,144635.00,4226.94376,N,07503.83808,W,2,12,0.69,332.2,M,-34.1,M,,0000*72
$GNGGA,144636.00,4226.93604,N,07503.83810,W,2,12,0.69,331.2,M,-34.1,M,,0000*7C
$GNGGA,144637.00,4226.92781,N,07503.83819,W,2,12,0.69,330.6,M,-34.1,M,,0000*7C
$GNGGA,144638.00,4226.91953,N,07503.83826,W,2,12,0.69,330.3,M,-34.1,M,,0000*78
$GNGGA,144639.00,4226.91127,N,07503.83829,W,2,12,0.69,330.1,M,-34.1,M,,0000*7F
$GNGGA,144640.00,4226.90297,N,07503.83830,W,2,12,0.69,330.0,M,-34.1,M,,0000*71
$GNGGA,144641.00,4226.89481,N,07503.83815,W,2,12,0.69,329.3,M,-34.1,M,,0000*75
$GNGGA,144642.00,4226.88678,N,07503.83765,W,2,12,0.69,329.2,M,-34.1,M,,0000*7A
$GNGGA,144643.00,4226.87899,N,07503.83672,W,2,12,0.69,329.1,M,-34.1,M,,0000*71
$GNGGA,144644.00,4226.87148,N,07503.83546,W,2,12,0.69,329.0,M,-34.1,M,,0000*76
$GNGGA,144645.00,4226.86425,N,07503.83401,W,2,12,0.69,328.9,M,-34.1,M,,0000*72
$GNGGA,144646.00,4226.85698,N,07503.83244,W,2,12,0.69,328.9,M,-34.1,M,,0000*71
$GNGGA,144647.00,4226.84969,N,07503.83074,W,2,12,0.69,329.0,M,-34.1,M,,0000*79
$GNGGA,144648.00,4226.84246,N,07503.82899,W,2,12,0.69,329.2,M,-34.1,M,,0000*78
$GNGGA,144649.00,4226.83540,N,07503.82728,W,2,12,0.69,329.1,M,-34.1,M,,0000*79
$GNGGA,144650.00,4226.82860,N,07503.82571,W,2,12,0.69,329.2,M,-34.1,M,,0000*72
$GNGGA,144651.00,4226.82244,N,07503.82445,W,2,12,0.71,329.4,M,-34.1,M,,0000*76
$GNGGA,144652.00,4226.81714,N,07503.82386,W,2,12,0.71,329.5,M,-34.1,M,,0000*7F
$GNGGA,144653.00,4226.81268,N,07503.82461,W,2,12,0.71,329.5,M,-34.1,M,,0000*7E
$GNGGA,144654.00,4226.80897,N,07503.82705,W,2,12,0.69,329.7,M,-34.2,M,,0000*7B
$GNGGA,144655.00,4226.80566,N,07503.83117,W,2,12,0.69,330.0,M,-34.2,M,,0000*72
$GNGGA,144656.00,4226.80241,N,07503.83694,W,2,12,0.69,330.0,M,-34.2,M,,0000*7F
$GNGGA,144657.00,4226.79877,N,07503.84399,W,2,12,0.69,330.2,M,-34.2,M,,0000*7A
$GNGGA,144658.00,4226.79464,N,07503.85210,W,2,12,0.69,330.4,M,-34.2,M,,0000*7C
$GNGGA,144659.00,4226.78992,N,07503.86109,W,2,12,0.69,330.9,M,-34.2,M,,0000*7D
$GNGGA,144700.00,4226.78471,N,07503.87090,W,2,12,0.69,331.4,M,-34.2,M,,0000*7C
$GNGGA,144701.00,4226.77888,N,07503.88137,W,2,12,0.69,331.9,M,-34.2,M,,0000*76
$GNGGA,144702.00,4226.77229,N,07503.89223,W,2,12,0.69,332.6,M,-34.2,M,,0000*7F
$GNGGA,144703.00,4226.76487,N,07503.90336,W,2,12,0.78,333.3,M,-34.2,M,,0000*74
$GNGGA,144704.00,4226.75696,N,07503.91484,W,2,12,0.78,334.0,M,-34.2,M,,0000*79
$GNGGA,144705.00,4226.74871,N,07503.92661,W,2,12,0.78,334.7,M,-34.2,M,,0000*73
$GNGGA,144706.00,4226.74017,N,07503.93882,W,2,12,0.78,335.1,M,-34.2,M,,0000*7D
$GNGGA,144707.00,4226.73128,N,07503.95147,W,2,12,0.78,335.4,M,-34.2,M,,0000*75
$GNGGA,144708.00,4226.72200,N,07503.96456,W,2,12,0.78,335.4,M,-34.2,M,,0000*74
$GNGGA,144709.00,4226.71235,N,07503.97821,W,2,12,0.78,335.2,M,-34.2,M,,0000*7B
$GNGGA,144710.00,4226.70225,N,07503.99231,W,2,12,0.78,334.9,M,-34.2,M,,0000*7C
$GNGGA,144711.00,4226.69174,N,07504.00699,W,2,12,0.78,334.6,M,-34.2,M,,0000*7C
$GNGGA,144712.00,4226.68097,N,07504.02219,W,2,12,0.78,333.9,M,-34.2,M,,0000*74
$GNGGA,144713.00,4226.66993,N,07504.03744,W,2,12,0.78,333.6,M,-34.2,M,,0000*75
$GNGGA,144714.00,4226.65890,N,07504.05257,W,2,12,0.78,333.2,M,-34.2,M,,0000*76
$GNGGA,144715.00,4226.64795,N,07504.06782,W,2,12,0.78,332.8,M,-34.2,M,,0000*79
$GNGGA,144716.00,4226.63712,N,07504.08305,W,2,12,0.78,332.6,M,-34.2,M,,0000*79
$GNGGA,144717.00,4226.62619,N,07504.09844,W,2,12,0.78,332.6,M,-34.2,M,,0000*7C
$GNGGA,144718.00,4226.61511,N,07504.11396,W,2,12,0.78,332.6,M,-34.2,M,,0000*76
$GNGGA,144719.00,4226.60403,N,07504.12958,W,2,12,0.78,332.5,M,-34.2,M,,0000*7C
$GNGGA,144720.00,4226.59305,N,07504.14531,W,2,12,0.78,332.4,M,-34.2,M,,0000*79
$GNGGA,144721.00,4226.58211,N,07504.16117,W,2,12,0.78,332.3,M,-34.2,M,,0000*78
$GNGGA,144722.00,4226.57122,N,07504.17719,W,2,12,0.78,332.2,M,-34.2,M,,0000*7F
$GNGGA,144723.00,4226.56059,N,07504.19358,W,2,12,0.78,332.0,M,-34.2,M,,0000*7F
$GNGGA,144724.00,4226.55039,N,07504.21057,W,2,12,0.78,332.1,M,-34.2,M,,0000*7B
$GNGGA,144725.00,4226.54089,N,07504.22862,W,2,12,0.78,331.7,M,-34.2,M,,0000*78
$GNGGA,144726.00,4226.53191,N,07504.24739,W,2,12,0.78,331.3,M,-34.2,M,,0000*77
$GNGGA,144727.00,4226.52348,N,07504.26666,W,2,12,0.78,331.1,M,-34.2,M,,0000*7A
$GNGGA,144728.00,4226.51572,N,07504.28644,W,2,12,0.81,331.1,M,-34.2,M,,0000*71
$GNGGA,144729.00,4226.50868,N,07504.30662,W,2,12,0.81,331.2,M,-34.2,M,,0000*79
$GNGGA,144730.00,4226.50243,N,07504.32718,W,2,12,0.81,331.1,M,-34.2,M,,0000*7F
$GNGGA,144731.00,4226.49689,N,07504.34814,W,2,12,0.81,331.2,M,-34.2,M,,0000*72
$GNGGA,144732.00,4226.49210,N,07504.36925,W,2,12,0.81,331.3,M,-34.2,M,,0000*75
$GNGGA,144733.00,4226.48817,N,07504.39055,W,2,12,0.81,331.6,M,-34.2,M,,0000*7C
$GNGGA,144734.00,4226.48495,N,07504.41192,W,2,12,0.85,331.6,M,-34.2,M,,0000*7C
$GNGGA,144735.00,4226.48253,N,07504.43325,W,2,12,0.85,331.7,M,-34.2,M,,0000*7C
$GNGGA,144736.00,4226.48096,N,07504.45456,W,2,12,0.81,331.6,M,-34.2,M,,0000*74
$GNGGA,144737.00,4226.48014,N,07504.47587,W,2,12,0.81,331.5,M,-34.2,M,,0000*73
$GNGGA,144738.00,4226.48011,N,07504.49710,W,2,12,0.81,331.6,M,-34.2,M,,0000*78
$GNGGA,144739.00,4226.48070,N,07504.51833,W,2,12,0.85,331.5,M,-34.2,M,,0000*7E
$GNGGA,144740.00,4226.48189,N,07504.53948,W,2,12,0.85,331.3,M,-34.2,M,,0000*7E
$GNGGA,144741.00,4226.48373,N,07504.56059,W,2,12,0.85,331.1,M,-34.2,M,,0000*76
$GNGGA,144742.00,4226.48601,N,07504.58162,W,2,12,0.85,330.9,M,-34.2,M,,0000*7B
$GNGGA,144743.00,4226.48855,N,07504.60276,W,2,12,0.85,330.5,M,-34.2,M,,0000*74
$GNGGA,144744.00,4226.49107,N,07504.62372,W,2,12,0.81,330.2,M,-34.2,M,,0000*78
$GNGGA,144745.00,4226.49359,N,07504.64462,W,2,12,0.81,330.1,M,-34.2,M,,0000*73
$GNGGA,144746.00,4226.49621,N,07504.66557,W,2,12,0.81,330.1,M,-34.2,M,,0000*7F
$GNGGA,144747.00,4226.49880,N,07504.68652,W,2,12,0.81,330.0,M,-34.2,M,,0000*72
$GNGGA,144748.00,4226.50135,N,07504.70735,W,2,12,0.83,330.0,M,-34.2,M,,0000*79
$GNGGA,144749.00,4226.50386,N,07504.72818,W,2,12,0.83,329.9,M,-34.2,M,,0000*71
$GNGGA,144750.00,4226.50635,N,07504.74899,W,2,12,0.81,329.8,M,-34.2,M,,0000*78
$GNGGA,144751.00,4226.50884,N,07504.76967,W,2,12,0.81,329.6,M,-34.2,M,,0000*71
$GNGGA,144752.00,4226.51129,N,07504.79033,W,2,12,0.81,329.7,M,-34.2,M,,0000*7B
$GNGGA,144753.00,4226.51369,N,07504.81092,W,2,12,0.78,329.7,M,-34.2,M,,0000*76
$GNGGA,144754.00,4226.51608,N,07504.83152,W,2,12,0.78,329.6,M,-34.2,M,,0000*7D
$GNGGA,144755.00,4226.51841,N,07504.85207,W,2,12,0.81,329.5,M,-34.2,M,,0000*7F
$GNGGA,144756.00,4226.52080,N,07504.87255,W,2,12,0.81,329.4,M,-34.2,M,,0000*7E
$GNGGA,144757.00,4226.52331,N,07504.89288,W,2,12,0.81,329.3,M,-34.2,M,,0000*7F
$GNGGA,144758.00,4226.52579,N,07504.91306,W,2,12,0.81,329.2,M,-34.2,M,,0000*75
$GNGGA,144759.00,4226.52821,N,07504.93323,W,2,12,0.81,329.1,M,-34.2,M,,0000*72
$GNGGA,144800.00,4226.53067,N,07504.95326,W,2,12,0.81,329.0,M,-34.2,M,,0000*78
$GNGGA,144801.00,4226.53310,N,07504.97319,W,2,12,0.81,328.9,M,-34.2,M,,0000*7C
$GNGGA,144802.00,4226.53546,N,07504.99310,W,2,12,0.81,328.8,M,-34.2,M,,0000*7C
$GNGGA,144803.00,4226.53785,N,07505.01314,W,2,12,0.81,328.7,M,-34.2,M,,0000*7B
$GNGGA,144804.00,4226.54031,N,07505.03346,W,2,12,0.81,328.6,M,-34.2,M,,0000*77
$GNGGA,144805.00,4226.54278,N,07505.05396,W,2,12,0.81,328.6,M,-34.2,M,,0000*72
$GNGGA,144806.00,4226.54523,N,07505.07447,W,2,12,0.81,328.5,M,-34.2,M,,0000*72
$GNGGA,144807.00,4226.54771,N,07505.09501,W,2,12,0.81,328.4,M,-34.2,M,,0000*7A
$GNGGA,144808.00,4226.55022,N,07505.11552,W,2,12,0.83,328.2,M,-34.2,M,,0000*7E
$GNGGA,144809.00,4226.55274,N,07505.13596,W,2,12,0.83,328.1,M,-34.2,M,,0000*77
$GNGGA,144810.00,4226.55524,N,07505.15634,W,2,12,0.83,327.9,M,-34.2,M,,0000*77
$GNGGA,144811.00,4226.55766,N,07505.17668,W,2,12,0.83,327.8,M,-34.2,M,,0000*78
$GNGGA,144812.00,4226.56012,N,07505.19693,W,2,12,0.76,327.7,M,-34.2,M,,0000*73
$GNGGA,144813.00,4226.56260,N,07505.21728,W,2,12,0.83,327.5,M,-34.2,M,,0000*77
$GNGGA,144814.00,4226.56510,N,07505.23767,W,2,12,0.83,327.5,M,-34.2,M,,0000*79
$GNGGA,144815.00,4226.56766,N,07505.25816,W,2,12,0.83,327.3,M,-34.2,M,,0000*72
$GNGGA,144816.00,4226.57023,N,07505.27873,W,2,12,0.83,327.2,M,-34.2,M,,0000*76
$GNGGA,144817.00,4226.57283,N,07505.29938,W,2,12,0.76,326.9,M,-34.2,M,,0000*7F
$GNGGA,144818.00,4226.57536,N,07505.31994,W,2,12,0.76,326.8,M,-34.2,M,,0000*77
$GNGGA,144819.00,4226.57791,N,07505.34046,W,2,12,0.76,326.6,M,-34.2,M,,0000*74
$GNGGA,144820.00,4226.58052,N,07505.36096,W,2,12,0.76,326.4,M,-34.2,M,,0000*74
$GNGGA,144821.00,4226.58304,N,07505.38145,W,2,12,0.74,326.3,M,-34.2,M,,0000*71
$GNGGA,144822.00,4226.58555,N,07505.40198,W,2,12,0.74,326.1,M,-34.2,M,,0000*7D
$GNGGA,144823.00,4226.58803,N,07505.42248,W,2,12,0.74,326.0,M,-34.2,M,,0000*7F
$GNGGA,144824.00,4226.59042,N,07505.44283,W,2,12,0.74,325.8,M,-34.2,M,,0000*7E
