ts:8340
$GNTXT,01,01,02,u-blox AG - www.u-blox.com*4E
ts:8440
$GNTXT,01,01,02,HW UBX-M8030 00080000*60
ts:8460
$GNTXT,01,01,02,ROM CORE 3.01 (107888)*2B
ts:8480
$GNTXT,01,01,02,FWVER=SPG 3.01*46
ts:8517
$GNTXT,01,01,02,PROTVER=18.00*11
ts:8553
$GNTXT,01,01,02,GPS;GLO;GAL;BDS*77
ts:8591
$GNTXT,01,01,02,SBAS;IMES;QZSS*49
ts:8627
$GNTXT,01,01,02,GNSS OTP=GPS;GLO*37
ts:8665
$GNTXT,01,01,02,LLC=FFFFFFFF-FFFFFFED-FFFFFFFF-FFFFFFFF-FFFFFF69*23
ts:8736
$GNTXT,01,01,02,ANTSUPERV=AC SD PDoS SR*3E
ts:8782
$GNTXT,01,01,02,ANTSTATUS=DONTKNOW*2D
ts:8822
$GNTXT,01,01,02,PF=3FF*4B
ts:8851
$GNRMC,143537.71,V,,,,,,,231218,,,N*69
ts:8893
$GNVTG,,,,,,,,,N*2E
ts:8914
$GNGGA,143537.71,,,,,0,00,99.99,,,,,,*79
ts:8959
$GNGSA,A,1,,,,,,,,,,,,,99.99,99.99,99.99*2E
ts:9005
$GNGSA,A,1,,,,,,,,,,,,,99.99,99.99,99.99*2E
ts:9053
$GPGSV,2,1,05,13,41,050,,15,79,055,,21,67,284,,24,33,151,*78
ts:9116
$GPGSV,2,2,05,29,14,203,*43
ts:9147
$GLGSV,1,1,00*65
ts:9165
$GNGLL,,,,,143537.71,V,N*55
ts:9196
$GNRMC,143538.00,V,,,,,,,231218,,,N*60
ts:9240
$GNVTG,,,,,,,,,N*2E
ts:9274
$GNGGA,143538.00,,,,,0,00,99.99,,,,,,*70
ts:9303
$GNGSA,A,1,,,,,,,,,,,,,99.99,99.99,99.99*2E
ts:9369
$GNGSA,A,1,,,,,,,,,,,,,99.99,99.99,99.99*2E
ts:9397
$GPGSV,2,1,05,13,41,050,,15,79,055,,21,67,284,,24,33,151,*78
ts:9461
$GPGSV,2,2,05,29,14,203,*43
ts:9491
$GLGSV,1,1,00*65
ts:9510
$GNGLL,,,,,143538.00,V,N*5C
ts:9540
$GNTXT,01,01,02,ANTSTATUS=INIT*3B
ts:9828
$GNRMC,143539.00,V,,,,,,,231218,,,N*61
ts:9873
$GNVTG,,,,,,,,,N*2E
ts:9898
$GNGGA,143539.00,,,,,0,00,99.99,,,,,,*71
ts:9939
$GNGSA,A,1,,,,,,,,,,,,,99.99,99.99,99.99*2E
ts:9987
$GNGSA,A,1,,,,,,,,,,,,,99.99,99.99,99.99*2E
ts:10032
$GPGSV,2,1,05,13,41,050,33,15,79,055,,21,67,284,,24,33,151,37*7C
ts:10101
$GPGSV,2,2,05,29,14,203,*43
ts:10131
$GLGSV,1,1,00*65
ts:10150
$GNGLL,,,,,143539.00,V,N*5D
ts:10188
$GNRMC,143539.50,V,,,,,,,231218,,,N*64
ts:10233
$GNVTG,,,,,,,,,N*2E
ts:10255
$GNGGA,143539.50,,,,,0,03,3.73,,,,,,*40
ts:10297
$GNGSA,A,1,15,13,24,,,,,,,,,,3.86,3.73,1.00*15
ts:10350
$GNGSA,A,1,,,,,,,,,,,,,3.86,3.73,1.00*15
ts:10391
$GPGSV,2,1,05,13,41,050,32,15,79,055,36,21,67,283,,24,33,151,39*71
ts:10462
$GPGSV,2,2,05,29,14,203,*43
ts:10492
$GLGSV,1,1,00*65
ts:10514
$GNGLL,,,,,143539.50,V,N*58
ts:10559
$GNTXT,01,01,02,ANTSTATUS=OK*25
ts:10678
$GNRMC,143540.00,V,,,,,,,231218,,,N*6F
ts:10722
$GNVTG,,,,,,,,,N*2E
ts:10744
$GNGGA,143540.00,,,,,0,03,3.73,,,,,,*4B
ts:10787
$GNGSA,A,1,15,13,24,,,,,,,,,,3.86,3.73,1.00*15
ts:10837
$GNGSA,A,1,,,,,,,,,,,,,3.86,3.73,1.00*15
ts:10883
$GPGSV,2,1,05,13,41,050,32,15,79,055,36,21,67,283,28,24,33,151,38*7A
ts:10953
$GPGSV,2,2,05,29,14,203,*43
ts:10983
$GLGSV,1,1,00*65
ts:11002
$GNGLL,,,,,143540.00,V,N*53
ts:11704
$GNRMC,143541.00,A,4228.21353,N,07503.88667,W,1.196,,231218,,,A*72
ts:11778
$GNVTG,,T,,M,1.196,N,2.215,K,A*36
ts:11815
$GNGGA,143541.00,4228.21353,N,07503.88667,W,1,05,1.85,446.4,M,-34.1,M,,*7A
ts:11895
$GNGSA,A,3,15,21,13,24,29,,,,,,,,3.13,1.85,2.52*1C
ts:11948
$GNGSA,A,3,,,,,,,,,,,,,3.13,1.85,2.52*14
ts:11995
$GPGSV,2,1,05,13,41,050,34,15,79,055,39,21,67,283,29,24,33,151,39*73
ts:12064
$GPGSV,2,2,05,29,13,203,37*40
ts:12097
$GLGSV,1,1,00*65
ts:12115
$GNGLL,4228.21353,N,07503.88667,W,143541.00,A,A*6F
ts:12681
$GNRMC,143542.00,A,4228.21239,N,07503.88624,W,0.249,,231218,,,A*7B
ts:12754
$GNVTG,,T,,M,0.249,N,0.461,K,A*31
ts:12792
$GNGGA,143542.00,4228.21239,N,07503.88624,W,1,05,1.85,447.0,M,-34.1,M,,*76
ts:12871
$GNGSA,A,3,15,21,13,24,29,,,,,,,,3.12,1.85,2.52*1D
ts:12941
$GNGSA,A,3,,,,,,,,,,,,,3.12,1.85,2.52*15
ts:12968
$GPGSV,2,1,05,13,41,050,31,15,79,055,39,21,67,283,29,24,33,151,39*76
ts:13041
$GPGSV,2,2,05,29,13,203,37*40
ts:13073
$GLGSV,1,1,01,,,,31*66
ts:13098
$GNGLL,4228.21239,N,07503.88624,W,143542.00,A,A*66
ts:13680
$GNRMC,143543.00,A,4228.21282,N,07503.88480,W,0.112,,231218,,,A*7B
ts:13754
$GNVTG,,T,,M,0.112,N,0.207,K,A*3A
ts:13790
$GNGGA,143543.00,4228.21282,N,07503.88480,W,1,05,1.85,445.5,M,-34.1,M,,*7C
ts:13870
$GNGSA,A,3,15,21,13,24,29,,,,,,,,3.12,1.85,2.52*1D
ts:13927
$GNGSA,A,3,,,,,,,,,,,,,3.12,1.85,2.52*15
ts:13967
$GPGSV,2,1,05,13,41,050,32,15,79,055,37,21,67,283,30,24,33,151,37*7D
ts:14040
$GPGSV,2,2,05,29,13,203,40*40
ts:14073
$GLGSV,1,1,01,,,,35*62
ts:14099
$GNGLL,4228.21282,N,07503.88480,W,143543.00,A,A*6B
ts:14681
$GNRMC,143544.00,A,4228.21286,N,07503.88441,W,0.105,,231218,,,A*73
ts:14755
$GNVTG,,T,,M,0.105,N,0.195,K,A*34
ts:14791
$GNGGA,143544.00,4228.21286,N,07503.88441,W,1,05,1.85,444.8,M,-34.1,M,,*7E
ts:14870
$GNGSA,A,3,15,21,13,24,29,,,,,,,,3.12,1.85,2.52*1D
ts:14927
$GNGSA,A,3,,,,,,,,,,,,,3.12,1.85,2.52*15
ts:14968
$GPGSV,2,1,05,13,41,050,32,15,79,055,39,21,67,283,29,24,33,151,35*79
ts:15041
$GPGSV,2,2,05,29,13,203,40*40
ts:15073
$GLGSV,1,1,01,,,,34*63
ts:15098
$GNGLL,4228.21286,N,07503.88441,W,143544.00,A,A*65
ts:15681
$GNRMC,143545.00,A,4228.21303,N,07503.88460,W,0.154,,231218,,,A*79
ts:15768
$GNVTG,,T,,M,0.154,N,0.285,K,A*32
ts:15794
$GNGGA,143545.00,4228.21303,N,07503.88460,W,1,05,1.85,444.3,M,-34.1,M,,*7B
ts:15873
$GNGSA,A,3,15,21,13,24,29,,,,,,,,3.12,1.85,2.52*1D
ts:15924
$GNGSA,A,3,,,,,,,,,,,,,3.12,1.85,2.52*15
ts:15968
$GPGSV,2,1,05,13,41,050,32,15,79,055,36,21,67,283,30,24,33,151,35*7E
ts:16041
$GPGSV,2,2,05,29,13,203,36*41
ts:16073
$GLGSV,1,1,01,,,,31*66
ts:16098
$GNGLL,4228.21303,N,07503.88460,W,143545.00,A,A*6B
ts:16681
$GNRMC,143546.00,A,4228.21301,N,07503.88461,W,0.076,,231218,,,A*78
ts:16755
$GNVTG,,T,,M,0.076,N,0.140,K,A*39
ts:16792
$GNGGA,143546.00,4228.21301,N,07503.88461,W,1,05,1.85,444.3,M,-34.1,M,,*7B
ts:16873
$GNGSA,A,3,15,21,13,24,29,,,,,,,,3.12,1.85,2.52*1D
ts:16924
$GNGSA,A,3,,,,,,,,,,,,,3.12,1.85,2.52*15
ts:16968
$GPGSV,2,1,05,13,41,050,33,15,79,055,37,21,67,283,30,24,33,151,35*7E
ts:17041
$GPGSV,2,2,05,29,13,203,40*40
ts:17073
$GLGSV,1,1,01,,,,31*66
ts:17098
$GNGLL,4228.21301,N,07503.88461,W,143546.00,A,A*6B
ts:17681
$GNRMC,143547.00,A,4228.21300,N,07503.88469,W,0.084,,231218,,,A*7D
ts:17756
$GNVTG,,T,,M,0.084,N,0.155,K,A*30
ts:17791
$GNGGA,143547.00,4228.21300,N,07503.88469,W,1,05,1.85,444.4,M,-34.1,M,,*74
ts:17873
$GNGSA,A,3,15,21,13,24,29,,,,,,,,3.12,1.85,2.52*1D
ts:17925
$GNGSA,A,3,,,,,,,,,,,,,3.12,1.85,2.52*15
ts:17968
$GPGSV,2,1,05,13,41,050,35,15,79,055,38,21,67,283,30,24,33,151,37*75
ts:18041
$GPGSV,2,2,05,29,13,203,41*41
ts:18106
$GLGSV,1,1,01,,,,33*64
ts:18113
$GNGLL,4228.21300,N,07503.88469,W,143547.00,A,A*63
ts:18681
$GNRMC,143548.00,A,4228.21301,N,07503.88471,W,0.114,,231218,,,A*72
ts:18756
$GNVTG,,T,,M,0.114,N,0.211,K,A*3B
ts:18794
$GNGGA,143548.00,4228.21301,N,07503.88471,W,1,05,1.85,444.3,M,-34.1,M,,*74
ts:18870
$GNGSA,A,3,15,21,13,24,29,,,,,,,,3.12,1.85,2.52*1D
ts:18924
$GNGSA,A,3,,,,,,,,,,,,,3.12,1.85,2.52*15
ts:18968
$GPGSV,2,1,05,13,41,050,34,15,79,055,38,21,67,283,30,24,33,151,37*74
ts:19041
$GPGSV,2,2,05,29,13,203,41*41
ts:19073
$GLGSV,1,1,01,,,,34*63
ts:19098
$GNGLL,4228.21301,N,07503.88471,W,143548.00,A,A*64
ts:19681
$GNRMC,143549.00,A,4228.21298,N,07503.88467,W,0.022,,231218,,,A*71
ts:19758
$GNVTG,,T,,M,0.022,N,0.041,K,A*38
ts:19791
$GNGGA,143549.00,4228.21298,N,07503.88467,W,1,05,1.85,444.2,M,-34.1,M,,*72
ts:19870
$GNGSA,A,3,15,21,13,24,29,,,,,,,,3.12,1.85,2.51*1E
ts:19924
$GNGSA,A,3,,,,,,,,,,,,,3.12,1.85,2.51*16
ts:19968
$GPGSV,2,1,05,13,41,050,30,15,79,055,37,21,67,283,30,24,33,151,36*7E
ts:20041
$GPGSV,2,2,05,29,13,203,39*4E
ts:20073
$GLGSV,1,1,01,,,,34*63
ts:20098
$GNGLL,4228.21298,N,07503.88467,W,143549.00,A,A*63
ts:20681
$GNRMC,143550.00,A,4228.21301,N,07503.88463,W,0.015,,231218,,,A*78
ts:20758
$GNVTG,,T,,M,0.015,N,0.029,K,A*32
ts:20791
$GNGGA,143550.00,4228.21301,N,07503.88463,W,1,05,1.85,444.1,M,-34.1,M,,*7C
ts:20871
$GNGSA,A,3,15,21,13,24,29,,,,,,,,3.12,1.85,2.51*1E
ts:20925
$GNGSA,A,3,,,,,,,,,,,,,3.12,1.85,2.51*16
ts:20968
$GPGSV,2,1,06,05,,,37,13,41,050,30,15,79,055,37,21,67,283,30*4A
ts:21036
$GPGSV,2,2,06,24,33,151,38,29,13,203,39*75
ts:21082
$GLGSV,1,1,01,,,,34*63
ts:21107
$GNGLL,4228.21301,N,07503.88463,W,143550.00,A,A*6E
ts:21681
$GNRMC,143551.00,A,4228.21302,N,07503.88455,W,0.233,,231218,,,A*79
ts:21758
$GNVTG,,T,,M,0.233,N,0.431,K,A*39
ts:21793
$GNGGA,143551.00,4228.21302,N,07503.88455,W,1,05,1.85,443.8,M,-34.1,M,,*75
ts:21872
$GNGSA,A,3,15,21,13,24,29,,,,,,,,3.12,1.85,2.51*1E
ts:21925
$GNGSA,A,3,,,,,,,,,,,,,3.12,1.85,2.51*16
ts:21969
$GPGSV,2,1,06,05,,,39,13,41,050,31,15,79,055,38,21,67,283,31*4B
ts:22036
$GPGSV,2,2,06,24,33,151,38,29,13,203,39*75
ts:22082
$GLGSV,1,1,01,,,,34*63
ts:22107
$GNGLL,4228.21302,N,07503.88455,W,143551.00,A,A*69
ts:22681
$GNRMC,143552.00,A,4228.21304,N,07503.88457,W,0.366,,231218,,,A*7F
ts:22755
$GNVTG,,T,,M,0.366,N,0.678,K,A*37
ts:22792
$GNGGA,143552.00,4228.21304,N,07503.88457,W,1,05,1.85,443.8,M,-34.1,M,,*72
ts:22872
$GNGSA,A,3,15,21,13,24,29,,,,,,,,3.12,1.85,2.51*1E
ts:22925
$GNGSA,A,3,,,,,,,,,,,,,3.12,1.85,2.51*16
ts:22969
$GPGSV,2,1,06,05,,,37,13,41,050,31,15,79,055,36,21,67,283,30*4A
ts:23036
$GPGSV,2,2,06,24,33,151,37,29,13,203,39*7A
ts:23083
$GLGSV,1,1,01,,,,34*63
ts:23110
$GNGLL,4228.21304,N,07503.88457,W,143552.00,A,A*6E
ts:23682
$GNRMC,143553.00,A,4228.21306,N,07503.88452,W,0.316,,231218,,,A*7E
ts:23755
$GNVTG,,T,,M,0.316,N,0.586,K,A*32
ts:23793
$GNGGA,143553.00,4228.21306,N,07503.88452,W,1,05,1.85,443.6,M,-34.1,M,,*7A
ts:23872
$GNGSA,A,3,15,21,13,24,29,,,,,,,,3.12,1.85,2.51*1E
ts:23925
$GNGSA,A,3,,,,,,,,,,,,,3.12,1.85,2.51*16
ts:23969
$GPGSV,2,1,06,05,,,39,13,41,050,30,15,79,055,38,21,67,283,31*4A
ts:24037
$GPGSV,2,2,06,24,33,151,37,29,13,203,40*74
ts:24085
$GLGSV,1,1,01,,,,35*62
ts:24107
$GNGLL,4228.21306,N,07503.88452,W,143553.00,A,A*68
ts:24681
$GNRMC,143554.00,A,4228.21317,N,07503.88439,W,0.438,,231218,,,A*7F
ts:24755
$GNVTG,,T,,M,0.438,N,0.812,K,A*39
ts:24792
$GNGGA,143554.00,4228.21317,N,07503.88439,W,1,05,1.85,443.2,M,-34.1,M,,*74
ts:24871
$GNGSA,A,3,15,21,13,24,29,,,,,,,,3.12,1.85,2.51*1E
ts:24925
$GNGSA,A,3,,,,,,,,,,,,,3.12,1.85,2.51*16
ts:24968
$GPGSV,2,1,07,05,,,39,13,41,050,31,15,79,055,38,21,67,283,31*4A
ts:25037
$GPGSV,2,2,07,24,33,151,38,29,13,203,39,51,31,223,37*45
ts:25099
$GLGSV,1,1,01,,,,35*62
ts:25120
$GNGLL,4228.21317,N,07503.88439,W,143554.00,A,A*62
ts:25681
$GNRMC,143555.00,A,4228.21313,N,07503.88439,W,0.342,,231218,,,A*70
ts:25756
$GNVTG,,T,,M,0.342,N,0.633,K,A*3E
ts:25791
$GNGGA,143555.00,4228.21313,N,07503.88439,W,1,05,1.85,443.3,M,-34.1,M,,*70
ts:25872
$GNGSA,A,3,15,21,13,24,29,,,,,,,,3.12,1.85,2.51*1E
ts:25925
$GNGSA,A,3,,,,,,,,,,,,,3.12,1.85,2.51*16
ts:25968
$GPGSV,2,1,08,05,,,36,10,,,31,13,41,050,34,15,79,055,36*7B
ts:26052
$GPGSV,2,2,08,21,67,283,30,24,33,151,35,29,13,203,39,51,31,223,34*7C
ts:26105
$GLGSV,1,1,01,,,,33*64
ts:26130
$GNGLL,4228.21313,N,07503.88439,W,143555.00,A,A*67
ts:26682
$GNRMC,143556.00,A,4228.21312,N,07503.88438,W,0.303,,231218,,,A*76
ts:26756
$GNVTG,,T,,M,0.303,N,0.561,K,A*3F
ts:26793
$GNGGA,143556.00,4228.21312,N,07503.88438,W,1,05,1.85,443.3,M,-34.1,M,,*73
ts:26873
$GNGSA,A,3,15,21,13,24,29,,,,,,,,3.12,1.85,2.51*1E
ts:26926
$GNGSA,A,3,,,,,,,,,,,,,3.12,1.85,2.51*16
ts:26973
$GPGSV,2,1,08,05,,,36,10,,,31,13,41,050,34,15,79,055,38*75
ts:27032
$GPGSV,2,2,08,21,67,283,29,24,33,151,36,29,13,203,39,51,31,223,34*77
ts:27105
$GLGSV,1,1,01,,,,32*65
ts:27130
$GNGLL,4228.21312,N,07503.88438,W,143556.00,A,A*64
ts:27682
$GNRMC,143557.00,A,4228.21299,N,07503.88446,W,0.451,,231218,,,A*7C
ts:27755
$GNVTG,,T,,M,0.451,N,0.835,K,A*33
ts:27792
$GNGGA,143557.00,4228.21299,N,07503.88446,W,1,05,1.85,443.7,M,-34.1,M,,*7D
ts:27872
$GNGSA,A,3,15,21,13,24,29,,,,,,,,3.11,1.85,2.51*1D
ts:27928
$GNGSA,A,3,,,,,,,,,,,,,3.11,1.85,2.51*15
ts:27969
$GPGSV,2,1,08,05,,,36,10,,,31,13,41,050,34,15,79,055,38*75
ts:28031
$GPGSV,2,2,08,21,67,283,28,24,33,151,36,29,13,203,39,51,31,223,35*77
ts:28104
$GLGSV,1,1,01,,,,32*65
ts:28129
$GNGLL,4228.21299,N,07503.88446,W,143557.00,A,A*6E
ts:28683
$GNRMC,143558.00,A,4228.21291,N,07503.88453,W,0.376,,231218,,,A*7D
ts:28756
$GNVTG,,T,,M,0.376,N,0.696,K,A*36
ts:28793
$GNGGA,143558.00,4228.21291,N,07503.88453,W,1,05,1.85,444.0,M,-34.1,M,,*7E
ts:28875
$GNGSA,A,3,15,21,13,24,29,,,,,,,,3.11,1.85,2.51*1D
ts:28927
$GNGSA,A,3,,,,,,,,,,,,,3.11,1.85,2.51*15
ts:28970
$GPGSV,2,1,08,05,,,36,10,,,31,13,41,050,34,15,79,055,38*75
ts:29032
$GPGSV,2,2,08,21,67,283,28,24,33,151,36,29,13,203,39,51,31,223,35*77
ts:29105
$GLGSV,1,1,01,,,,32*65
ts:29130
$GNGLL,4228.21291,N,07503.88453,W,143558.00,A,A*6D
ts:29685
$GNRMC,143559.00,A,4228.21284,N,07503.88464,W,0.449,,231218,,,A*77
ts:29759
$GNVTG,,T,,M,0.449,N,0.831,K,A*3E
ts:29796
$GNGGA,143559.00,4228.21284,N,07503.88464,W,1,05,1.85,444.3,M,-34.1,M,,*7C
ts:29877
$GNGSA,A,3,15,21,13,24,29,,,,,,,,3.11,1.85,2.51*1D
ts:29928
$GNGSA,A,3,,,,,,,,,,,,,3.11,1.85,2.51*15
ts:29972
$GPGSV,2,1,08,05,,,40,10,,,30,13,41,050,31,15,79,055,38*70
ts:30034
$GPGSV,2,2,08,21,67,283,28,24,33,151,38,29,13,203,39,51,31,223,36*7A
ts:30107
$GLGSV,1,1,01,,,,33*64
ts:30132
$GNGLL,4228.21284,N,07503.88464,W,143559.00,A,A*6C
ts:30685
$GNRMC,143600.00,A,4228.21278,N,07503.88467,W,0.330,,231218,,,A*71
ts:30758
$GNVTG,,T,,M,0.330,N,0.610,K,A*3A
ts:30798
$GNGGA,143600.00,4228.21278,N,07503.88467,W,1,05,1.85,444.4,M,-34.1,M,,*74
ts:30874
$GNGSA,A,3,15,21,13,24,29,,,,,,,,3.11,1.85,2.51*1D
ts:30928
$GNGSA,A,3,,,,,,,,,,,,,3.11,1.85,2.51*15
ts:30972
$GPGSV,2,1,08,05,,,38,10,,,31,13,41,050,32,15,79,055,38*7D
ts:31034
$GPGSV,2,2,08,21,67,283,30,24,33,151,38,29,13,203,41,51,31,223,35*7F
ts:31107
$GLGSV,1,1,01,,,,34*63
ts:31151
$GNGLL,4228.21278,N,07503.88467,W,143600.00,A,A*63
ts:31684
$GNRMC,143601.00,A,4228.21268,N,07503.88475,W,0.436,,231218,,,A*73
ts:31775
$GNVTG,,T,,M,0.436,N,0.807,K,A*33
ts:31794
$GNGGA,143601.00,4228.21268,N,07503.88475,W,1,05,1.85,444.7,M,-34.1,M,,*74
ts:31873
$GNGSA,A,3,15,21,13,24,29,,,,,,,,3.11,1.85,2.51*1D
ts:31927
$GNGSA,A,3,,,,,,,,,,,,,3.11,1.85,2.51*15
ts:31971
$GPGSV,2,1,08,05,,,38,10,,,31,13,41,050,32,15,79,055,38*7D
ts:32033
$GPGSV,2,2,08,21,67,283,30,24,33,151,38,29,13,203,41,51,31,223,35*7F
ts:32106
$GLGSV,1,1,01,,,,35*62
ts:32132
$GNGLL,4228.21268,N,07503.88475,W,143601.00,A,A*60
ts:32685
$GNRMC,143602.00,A,4228.21263,N,07503.88477,W,0.273,,231218,,,A*7E
ts:32759
$GNVTG,,T,,M,0.273,N,0.505,K,A*3B
ts:32795
$GNGGA,143602.00,4228.21263,N,07503.88477,W,1,05,1.84,444.8,M,-34.1,M,,*70
ts:32875
$GNGSA,A,3,15,21,13,24,29,,,,,,,,3.11,1.84,2.50*1D
ts:32928
$GNGSA,A,3,,,,,,,,,,,,,3.11,1.84,2.50*15
ts:32972
$GPGSV,2,1,08,05,,,36,10,,,30,13,41,050,32,15,79,055,37*7D
ts:33035
$GPGSV,2,2,08,21,67,283,29,24,33,151,38,29,13,203,34,51,31,223,35*75
ts:33107
$GLGSV,1,1,01,,,,34*63
ts:33135
$GNGLL,4228.21263,N,07503.88477,W,143602.00,A,A*6A
ts:33682
$GNRMC,143603.00,A,4228.21257,N,07503.88481,W,0.174,,231218,,,A*75
ts:33756
$GNVTG,,T,,M,0.174,N,0.322,K,A*3C
ts:33793
$GNGGA,143603.00,4228.21257,N,07503.88481,W,1,05,1.84,445.0,M,-34.1,M,,*76
ts:33871
$GNGSA,A,3,15,21,13,24,29,,,,,,,,3.11,1.84,2.50*1D
ts:33925
$GNGSA,A,3,,,,,,,,,,,,,3.11,1.84,2.50*15
ts:33970
$GPGSV,2,1,08,05,,,37,10,,,28,13,41,050,32,15,79,055,37*75
ts:34032
$GPGSV,2,2,08,21,67,283,29,24,33,151,39,29,13,203,33,51,31,223,35*73
ts:34122
$GLGSV,1,1,01,,,,33*64
ts:34130
$GNGLL,4228.21257,N,07503.88481,W,143603.00,A,A*65
ts:34682
$GNRMC,143604.00,A,4228.21245,N,07503.88491,W,0.178,,231218,,,A*7C
ts:34756
$GNVTG,,T,,M,0.178,N,0.330,K,A*33
ts:34793
$GNGGA,143604.00,4228.21245,N,07503.88491,W,1,05,1.84,445.3,M,-34.1,M,,*70
ts:34873
$GNGSA,A,3,15,21,13,24,29,,,,,,,,3.11,1.84,2.50*1D
ts:34926
$GNGSA,A,3,,,,,,,,,,,,,3.11,1.84,2.50*15
ts:34969
$GPGSV,2,1,08,05,,,36,10,,,27,13,41,050,32,15,79,055,37*7B
ts:35035
$GPGSV,2,2,08,21,67,283,29,24,33,151,39,29,13,203,33,51,31,223,35*73
ts:35106
$GLGSV,1,1,01,,,,33*64
ts:35130
$GNGLL,4228.21245,N,07503.88491,W,143604.00,A,A*60
ts:35680
$GNRMC,143605.00,A,4228.21244,N,07503.88496,W,0.215,,231218,,,A*73
ts:35755
$GNVTG,,T,,M,0.215,N,0.399,K,A*38
ts:35791
$GNGGA,143605.00,4228.21244,N,07503.88496,W,1,05,1.84,445.3,M,-34.1,M,,*77
ts:35869
$GNGSA,A,3,15,21,13,24,29,,,,,,,,3.11,1.84,2.50*1D
ts:35923
$GNGSA,A,3,,,,,,,,,,,,,3.11,1.84,2.50*15
ts:35970
$GPGSV,3,1,09,05,,,37,10,,,27,13,41,050,32,15,79,055,37*7A
ts:36030
$GPGSV,3,2,09,20,,,31,21,67,283,29,24,33,151,38,29,13,203,34*46
ts:36098
$GPGSV,3,3,09,51,31,223,35*43
ts:36130
$GLGSV,1,1,01,,,,33*64
ts:36155
$GNGLL,4228.21244,N,07503.88496,W,143605.00,A,A*67
ts:36682
$GNRMC,143606.00,A,4228.21250,N,07503.88507,W,0.215,,231218,,,A*7C
ts:36756
$GNVTG,,T,,M,0.215,N,0.399,K,A*38
ts:36792
$GNGGA,143606.00,4228.21250,N,07503.88507,W,1,05,1.84,444.7,M,-34.1,M,,*7D
ts:36885
$GNGSA,A,3,15,21,13,24,29,,,,,,,,3.11,1.84,2.50*1D
ts:36928
$GNGSA,A,3,,,,,,,,,,,,,3.11,1.84,2.50*15
ts:36969
$GPGSV,3,1,09,05,,,37,10,,,27,13,41,050,32,15,79,055,38*75
ts:37031
$GPGSV,3,2,09,20,,,31,21,67,283,30,24,33,151,38,29,13,203,40*4D
ts:37099
$GPGSV,3,3,09,51,31,223,36*40
ts:37131
$GLGSV,1,1,01,,,,34*63
ts:37157
$GNGLL,4228.21250,N,07503.88507,W,143606.00,A,A*68
ts:37682
$GNRMC,143607.00,A,4228.21252,N,07503.88514,W,0.139,,231218,,,A*70
ts:37757
$GNVTG,,T,,M,0.139,N,0.258,K,A*39
ts:37795
$GNGGA,143607.00,4228.21252,N,07503.88514,W,1,05,1.84,444.5,M,-34.1,M,,*7E
ts:37871
$GNGSA,A,3,15,21,13,24,29,,,,,,,,3.11,1.84,2.50*1D
ts:37925
$GNGSA,A,3,,,,,,,,,,,,,3.11,1.84,2.50*15
ts:37969
$GPGSV,3,1,09,05,,,36,10,,,27,13,41,050,32,15,79,055,37*7B
ts:38031
$GPGSV,3,2,09,20,,,31,21,67,283,30,24,33,151,37,29,13,203,39*4C
ts:38100
$GPGSV,3,3,09,51,31,223,35*43
ts:38131
$GLGSV,1,1,01,,,,34*63
ts:38156
$GNGLL,4228.21252,N,07503.88514,W,143607.00,A,A*69
ts:38682
$GNRMC,143608.00,A,4228.21254,N,07503.88513,W,0.020,,231218,,,A*77
ts:38759
$GNVTG,,T,,M,0.020,N,0.036,K,A*3A
ts:38793
$GNGGA,143608.00,4228.21254,N,07503.88513,W,1,05,1.84,444.3,M,-34.1,M,,*76
ts:38891
$GNGSA,A,3,15,21,13,24,29,,,,,,,,3.11,1.84,2.50*1D
ts:38927
$GNGSA,A,3,,,,,,,,,,,,,3.11,1.84,2.50*15
ts:38970
$GPGSV,3,1,09,05,,,36,10,,,26,13,41,050,31,15,79,055,37*79
ts:39032
$GPGSV,3,2,09,20,,,30,21,67,283,29,24,33,151,36,29,13,203,39*44
ts:39115
$GPGSV,3,3,09,51,31,223,35*43
ts:39132
$GLGSV,1,1,01,,,,34*63
ts:39160
$GNGLL,4228.21254,N,07503.88513,W,143608.00,A,A*67
ts:39683
$GNRMC,143609.00,A,4228.21255,N,07503.88514,W,0.015,,231218,,,A*76
ts:39756
$GNVTG,,T,,M,0.015,N,0.027,K,A*3C
ts:39793
$GNGGA,143609.00,4228.21255,N,07503.88514,W,1,05,1.84,444.2,M,-34.1,M,,*70
ts:39872
$GNGSA,A,3,15,21,13,24,29,,,,,,,,3.11,1.84,2.50*1D
ts:39926
$GNGSA,A,3,,,,,,,,,,,,,3.11,1.84,2.50*15
ts:39970
$GPGSV,3,1,09,05,,,38,10,,,27,13,41,050,31,15,79,055,38*79
ts:40032
$GPGSV,3,2,09,20,,,31,21,67,283,30,24,33,151,38,29,13,203,40*4D
ts:40103
$GPGSV,3,3,09,51,31,223,37*41
ts:40132
$GLGSV,1,1,01,,,,36*61
ts:40157
$GNGLL,4228.21255,N,07503.88514,W,143609.00,A,A*60
ts:40688
$GNRMC,143610.00,A,4228.21261,N,07503.88511,W,0.175,,231218,,,A*7B
ts:40762
$GNVTG,,T,,M,0.175,N,0.325,K,A*3A
ts:40799
$GNGGA,143610.00,4228.21261,N,07503.88511,W,1,05,1.84,443.9,M,-34.1,M,,*76
ts:40877
$GNGSA,A,3,15,21,13,24,29,,,,,,,,3.11,1.84,2.50*1D
ts:40931
$GNGSA,A,3,,,,,,,,,,,,,3.11,1.84,2.50*15
ts:40975
$GPGSV,3,1,09,05,,,37,10,,,27,13,41,050,31,15,79,055,38*76
ts:41060
$GPGSV,3,2,09,20,,,31,21,67,283,30,24,33,151,37,29,13,203,40*42
ts:41106
$GPGSV,3,3,09,51,31,223,36*40
ts:41138
$GLGSV,1,1,01,82,30,191,34*53
ts:41170
$GNGLL,4228.21261,N,07503.88511,W,143610.00,A,A*6A
ts:41684
$GNRMC,143611.00,A,4228.21261,N,07503.88509,W,0.124,,231218,,,A*77
ts:41772
$GNVTG,,T,,M,0.124,N,0.230,K,A*3B
ts:41794
$GNGGA,143611.00,4228.21261,N,07503.88509,W,1,05,1.84,443.9,M,-34.1,M,,*7E
ts:41873
$GNGSA,A,3,15,21,13,24,29,,,,,,,,3.10,1.84,2.50*1C
ts:41930
$GNGSA,A,3,,,,,,,,,,,,,3.10,1.84,2.50*14
ts:41971
$GPGSV,3,1,09,05,,,36,10,,,27,13,41,050,35,15,79,055,37*7C
ts:42033
$GPGSV,3,2,09,20,,,31,21,67,283,30,24,33,151,37,29,13,203,40*42
ts:42102
$GPGSV,3,3,09,51,31,223,36*40
ts:42133
$GLGSV,1,1,02,82,30,191,36,,,,29*59
ts:42172
$GNGLL,4228.21261,N,07503.88509,W,143611.00,A,A*62
ts:42688
$GNRMC,143611.00,A,4228.21260,N,07503.88509,W,0.045,,231218,,,A*70
ts:42762
$GNVTG,,T,,M,0.045,N,0.083,K,A*37
ts:42798
$GNGGA,143611.00,4228.21260,N,07503.88509,W,1,06,1.77,443.8,M,-34.1,M,,*71
ts:42880
$GNGSA,A,3,15,21,13,24,29,,,,,,,,3.04,1.77,2.47*13
ts:42931
$GNGSA,A,3,82,,,,,,,,,,,,3.04,1.77,2.47*11
ts:42977
$GPGSV,3,1,09,05,,,38,10,,,25,13,41,050,34,15,79,055,37*71
ts:43040
$GPGSV,3,2,09,20,,,24,21,67,283,29,24,33,151,37,29,13,203,42*4C
ts:43107
$GPGSV,3,3,09,51,31,223,35*43
ts:43140
$GLGSV,1,1,02,82,30,191,35,,,,27*54
ts:43178
$GNGLL,4228.21260,N,07503.88509,W,143611.00,A,A*63
ts:43682
$GNRMC,143612.00,A,4228.21259,N,07503.88510,W,0.141,,231218,,,A*74
ts:43759
$GNVTG,,T,,M,0.141,N,0.260,K,A*3D
ts:43792
$GNGGA,143612.00,4228.21259,N,07503.88510,W,1,06,1.77,443.9,M,-34.1,M,,*71
ts:43872
$GNGSA,A,3,15,21,13,24,29,,,,,,,,3.04,1.77,2.47*13
ts:43926
$GNGSA,A,3,82,,,,,,,,,,,,3.04,1.77,2.47*11
ts:43987
$GPGSV,3,1,09,05,,,37,10,,,24,13,41,050,33,15,79,055,38*77
ts:44034
$GPGSV,3,2,09,20,,,26,21,67,283,30,24,33,151,38,29,13,203,42*49
ts:44102
$GPGSV,3,3,09,51,31,223,35*43
ts:44134
$GLGSV,1,1,02,82,30,191,33,,,,27*52
ts:44176
$GNGLL,4228.21259,N,07503.88510,W,143612.00,A,A*62
ts:44687
$GNRMC,143613.00,A,4228.21262,N,07503.88506,W,0.051,,231218,,,A*7A
ts:44761
$GNVTG,,T,,M,0.051,N,0.094,K,A*34
ts:44798
$GNGGA,143613.00,4228.21262,N,07503.88506,W,1,06,1.77,443.7,M,-34.1,M,,*71
ts:44877
$GNGSA,A,3,15,21,13,24,29,,,,,,,,3.04,1.77,2.47*13
ts:44931
$GNGSA,A,3,82,,,,,,,,,,,,3.04,1.77,2.47*11
ts:44977
$GPGSV,3,1,09,05,,,36,10,,,23,13,41,050,33,15,79,055,38*71
ts:45039
$GPGSV,3,2,09,20,,,28,21,67,283,30,24,33,151,37,29,13,203,40*4A
ts:45110
$GPGSV,3,3,09,51,31,223,36*40
ts:45139
$GLGSV,1,1,02,82,30,191,33,,,,26*53
ts:45178
$GNGLL,4228.21262,N,07503.88506,W,143613.00,A,A*6C
ts:45682
$GNRMC,143614.00,A,4228.21264,N,07503.88503,W,0.038,,231218,,,A*71
ts:45756
$GNVTG,,T,,M,0.038,N,0.071,K,A*30
ts:45794
$GNGGA,143614.00,4228.21264,N,07503.88503,W,1,06,1.77,443.6,M,-34.1,M,,*74
ts:45873
$GNGSA,A,3,15,21,13,24,29,,,,,,,,3.04,1.77,2.47*13
ts:45926
$GNGSA,A,3,82,,,,,,,,,,,,3.04,1.77,2.47*11
ts:45973
$GPGSV,3,1,09,05,,,38,10,,,26,13,41,050,32,15,79,055,38*7B
ts:46037
$GPGSV,3,2,09,20,,,31,21,67,283,31,24,33,151,38,29,13,203,39*42
ts:46102
$GPGSV,3,3,09,51,31,223,36*40
ts:46134
$GLGSV,1,1,02,82,30,191,36,,,,26*56
ts:46188
$GNGLL,4228.21264,N,07503.88503,W,143614.00,A,A*68
ts:46688
$GNRMC,143615.00,A,4228.21259,N,07503.88504,W,0.085,,231218,,,A*7F
ts:46762
$GNVTG,,T,,M,0.085,N,0.157,K,A*33
ts:46798
$GNGGA,143615.00,4228.21259,N,07503.88504,W,1,06,1.77,443.7,M,-34.1,M,,*7D
ts:46877
$GNGSA,A,3,15,21,13,24,29,,,,,,,,3.03,1.77,2.47*14
ts:46934
$GNGSA,A,3,82,,,,,,,,,,,,3.03,1.77,2.47*16
ts:46977
$GPGSV,3,1,09,05,,,37,10,,,26,13,41,050,31,15,79,055,36*79
ts:47040
$GPGSV,3,2,09,20,,,30,21,67,283,31,24,33,151,36,29,13,203,38*4C
ts:47107
$GPGSV,3,3,09,51,31,223,34*42
ts:47140
$GLGSV,1,1,02,82,30,191,35,,,,27*54
ts:47179
$GNGLL,4228.21259,N,07503.88504,W,143615.00,A,A*60
ts:47685
$GNRMC,143616.00,A,4228.21259,N,07503.88510,W,0.067,,231218,,,A*75
ts:47759
$GNVTG,,T,,M,0.067,N,0.123,K,A*3C
ts:47798
$GNGGA,143616.00,4228.21259,N,07503.88510,W,1,06,1.77,443.7,M,-34.1,M,,*7B
ts:47874
$GNGSA,A,3,15,21,13,24,29,,,,,,,,3.03,1.77,2.46*15
ts:47930
$GNGSA,A,3,82,,,,,,,,,,,,3.03,1.77,2.46*17
ts:47975
$GPGSV,3,1,09,05,,,39,10,,,27,13,41,050,32,15,79,055,38*7B
ts:48037
$GPGSV,3,2,09,20,,,31,21,67,283,32,24,33,151,39,29,13,203,40*4E
ts:48105
$GPGSV,3,3,09,51,31,223,37*41
ts:48137
$GLGSV,1,1,02,82,30,191,35,,,,27*54
ts:48175
$GNGLL,4228.21259,N,07503.88510,W,143616.00,A,A*66
ts:48686
$GNRMC,143617.00,A,4228.21258,N,07503.88512,W,0.104,,231218,,,A*73
ts:48762
$GNVTG,,T,,M,0.104,N,0.192,K,A*32
ts:48797
$GNGGA,143617.00,4228.21258,N,07503.88512,W,1,06,1.77,443.6,M,-34.1,M,,*78
ts:48890
$GNGSA,A,3,15,21,13,24,29,,,,,,,,3.03,1.77,2.46*15
ts:48929
$GNGSA,A,3,82,,,,,,,,,,,,3.03,1.77,2.46*17
ts:48976
$GPGSV,3,1,09,05,,,38,10,,,27,13,41,050,32,15,79,055,39*7B
ts:49037
$GPGSV,3,2,09,20,,,31,21,67,283,31,24,33,151,38,29,13,203,40*4C
ts:49106
$GPGSV,3,3,09,51,31,223,36*40
ts:49137
$GLGSV,1,1,02,82,30,191,35,,,,27*54
ts:49179
$GNGLL,4228.21258,N,07503.88512,W,143617.00,A,A*64
ts:49682
$GNRMC,143618.00,A,4228.21258,N,07503.88513,W,0.111,,231218,,,A*79
ts:49756
$GNVTG,,T,,M,0.111,N,0.205,K,A*3B
ts:49794
$GNGGA,143618.00,4228.21258,N,07503.88513,W,1,06,1.77,443.6,M,-34.1,M,,*76
ts:49873
$GNGSA,A,3,15,21,13,24,29,,,,,,,,3.03,1.77,2.46*15
ts:49926
$GNGSA,A,3,82,,,,,,,,,,,,3.03,1.77,2.46*17
ts:49972
$GPGSV,3,1,09,05,,,36,10,,,27,13,41,050,30,15,79,055,37*79
ts:50034
$GPGSV,3,2,09,20,,,30,21,67,283,30,24,33,151,37,29,13,203,38*4C
ts:50105
$GPGSV,3,3,09,51,31,223,34*42
ts:50134
$GLGSV,1,1,02,82,30,191,35,,,,28*5B
ts:50173
$GNGLL,4228.21258,N,07503.88513,W,143618.00,A,A*6A
ts:50693
$GNRMC,143619.00,A,4228.21282,N,07503.88490,W,0.028,,231218,,,A*7E
ts:50767
$GNVTG,,T,,M,0.028,N,0.052,K,A*30
ts:50803
$GNGGA,143619.00,4228.21282,N,07503.88490,W,1,07,1.64,442.6,M,-34.1,M,,*78
ts:50882
$GNGSA,A,3,15,21,13,24,29,05,,,,,,,2.66,1.64,2.10*13
ts:50939
$GNGSA,A,3,82,,,,,,,,,,,,2.66,1.64,2.10*14
ts:50987
$GPGSV,3,1,09,05,15,091,38,10,,,27,13,41,050,31,15,79,055,37*4A
ts:51052
$GPGSV,3,2,09,20,,,30,21,67,283,30,24,33,151,39,29,13,203,36*4C
ts:51134
$GPGSV,3,3,09,51,31,223,34*42
ts:51152
$GLGSV,1,1,03,76,12,026,,82,30,191,35,,,,28*6C
ts:51202
$GNGLL,4228.21282,N,07503.88490,W,143619.00,A,A*66
ts:51686
$GNRMC,143620.00,A,4228.21302,N,07503.88473,W,0.209,,231218,,,A*71
ts:51760
$GNVTG,,T,,M,0.209,N,0.388,K,A*35
ts:51797
$GNGGA,143620.00,4228.21302,N,07503.88473,W,1,07,1.64,441.9,M,-34.1,M,,*7A
ts:51878
$GNGSA,A,3,15,21,13,24,29,05,,,,,,,2.66,1.64,2.10*13
ts:51931
$GNGSA,A,3,82,,,,,,,,,,,,2.66,1.64,2.10*14
ts:51977
$GPGSV,3,1,09,05,15,091,40,10,,,28,13,41,050,32,15,79,055,38*46
ts:52045
$GPGSV,3,2,09,20,,,30,21,67,283,31,24,33,151,39,29,13,203,38*43
ts:52112
$GPGSV,3,3,09,51,31,223,36*40
ts:52145
$GLGSV,1,1,03,76,12,026,28,82,30,191,35,,,,28*66
ts:52197
$GNGLL,4228.21302,N,07503.88473,W,143620.00,A,A*68
ts:52692
$GNRMC,143621.00,A,4228.21312,N,07503.88467,W,0.348,,231218,,,A*70
ts:52769
$GNVTG,,T,,M,0.348,N,0.644,K,A*34
ts:52803
$GNGGA,143621.00,4228.21312,N,07503.88467,W,1,07,1.64,441.5,M,-34.1,M,,*73
ts:52881
$GNGSA,A,3,15,21,13,24,29,05,,,,,,,2.66,1.64,2.10*13
ts:52938
$GNGSA,A,3,82,,,,,,,,,,,,2.66,1.64,2.10*14
ts:52984
$GPGSV,3,1,09,05,15,091,39,10,,,28,13,41,050,32,15,79,055,38*48
ts:53051
$GPGSV,3,2,09,20,,,31,21,67,283,31,24,33,151,39,29,13,203,38*42
ts:53119
$GPGSV,3,3,09,51,31,223,36*40
ts:53151
$GLGSV,1,1,03,76,12,026,29,82,30,191,35,,,,28*67
ts:53206
$GNGLL,4228.21312,N,07503.88467,W,143621.00,A,A*6D
ts:53686
$GNRMC,143622.00,A,4228.21315,N,07503.88462,W,0.335,,231218,,,A*7B
ts:53775
$GNVTG,,T,,M,0.335,N,0.621,K,A*3D
ts:53796
$GNGGA,143622.00,4228.21315,N,07503.88462,W,1,07,1.64,441.3,M,-34.1,M,,*74
ts:53876
$GNGSA,A,3,15,21,13,24,29,05,,,,,,,2.66,1.64,2.10*13
ts:53932
$GNGSA,A,3,82,,,,,,,,,,,,2.66,1.64,2.10*14
ts:53979
$GPGSV,3,1,09,05,15,091,37,10,,,27,13,41,050,29,15,79,055,36*4D
ts:54046
$GPGSV,3,2,09,20,,,30,21,67,283,31,24,33,151,37,29,13,203,35*40
ts:54117
$GPGSV,3,3,09,51,31,223,34*42
ts:54145
$GLGSV,1,1,03,76,12,026,29,82,30,191,34,,,,28*66
ts:54197
$GNGLL,4228.21315,N,07503.88462,W,143622.00,A,A*6C
ts:54696
$GNRMC,143623.00,A,4228.21319,N,07503.88457,W,0.042,,231218,,,A*73
ts:54770
$GNVTG,,T,,M,0.042,N,0.077,K,A*3B
ts:54808
$GNGGA,143623.00,4228.21319,N,07503.88457,W,1,07,1.64,441.2,M,-34.1,M,,*7E
ts:54886
$GNGSA,A,3,15,21,13,24,29,05,,,,,,,2.66,1.64,2.10*13
ts:54943
$GNGSA,A,3,82,,,,,,,,,,,,2.66,1.64,2.10*14
ts:55010
$GPGSV,3,1,09,05,15,091,38,10,,,26,13,41,050,29,15,79,055,38*4D
ts:55055
$GPGSV,3,2,09,20,,,30,21,67,283,30,24,33,151,37,29,13,203,37*43
ts:55123
$GPGSV,3,3,09,51,31,223,34*42
ts:55155
$GLGSV,1,1,04,76,12,026,29,77,24,086,,82,30,191,34,,,,28*59
ts:55219
$GNGLL,4228.21319,N,07503.88457,W,143623.00,A,A*67
ts:55688
$GNRMC,143624.00,A,4228.21327,N,07503.88456,W,0.087,,231218,,,A*71
ts:55761
$GNVTG,,T,,M,0.087,N,0.161,K,A*34
ts:55799
$GNGGA,143624.00,4228.21327,N,07503.88456,W,1,07,1.64,440.9,M,-34.1,M,,*7F
ts:55881
$GNGSA,A,3,15,21,13,24,29,05,,,,,,,2.66,1.64,2.10*13
ts:55933
$GNGSA,A,3,82,,,,,,,,,,,,2.66,1.64,2.10*14
ts:55994
$GPGSV,3,1,09,05,15,091,39,10,,,27,13,41,050,31,15,79,055,38*44
ts:56047
$GPGSV,3,2,09,20,,,31,21,67,283,31,24,33,151,38,29,13,203,37*4C
ts:56115
$GPGSV,3,3,09,51,31,223,35*43
ts:56147
$GLGSV,1,1,03,76,12,026,29,77,24,086,27,82,30,191,34*51
ts:56206
$GNGLL,4228.21327,N,07503.88456,W,143624.00,A,A*6C
ts:56693
$GNRMC,143625.00,A,4228.21332,N,07503.88459,W,0.173,,231218,,,A*71
ts:56771
$GNVTG,,T,,M,0.173,N,0.321,K,A*38
ts:56805
$GNGGA,143625.00,4228.21332,N,07503.88459,W,1,07,1.64,440.8,M,-34.1,M,,*74
ts:56883
$GNGSA,A,3,15,21,13,24,29,05,,,,,,,2.66,1.64,2.10*13
ts:56939
$GNGSA,A,3,82,,,,,,,,,,,,2.66,1.64,2.10*14
ts:56986
$GPGSV,3,1,09,05,15,091,36,10,,,27,13,41,050,30,15,79,055,37*45
ts:57052
$GPGSV,3,2,09,20,,,31,21,67,283,31,24,33,151,38,29,13,203,38*43
ts:57121
$GPGSV,3,3,09,51,31,223,35*43
ts:57172
$GLGSV,1,1,03,76,12,026,30,77,24,086,27,82,30,191,35*58
ts:57215
$GNGLL,4228.21332,N,07503.88459,W,143625.00,A,A*66
ts:57688
$GNRMC,143626.00,A,4228.21336,N,07503.88461,W,0.070,,231218,,,A*7F
ts:57762
$GNVTG,,T,,M,0.070,N,0.129,K,A*30
ts:57798
$GNGGA,143626.00,4228.21336,N,07503.88461,W,1,07,1.64,440.7,M,-34.1,M,,*77
ts:57877
$GNGSA,A,3,15,21,13,24,29,05,,,,,,,2.66,1.64,2.10*13
ts:57935
$GNGSA,A,3,82,,,,,,,,,,,,2.66,1.64,2.10*14
ts:57979
$GPGSV,3,1,09,05,15,091,36,10,,,28,13,41,050,31,15,79,055,37*4B
ts:58047
$GPGSV,3,2,09,20,,,32,21,67,283,30,24,33,151,37,29,13,203,40*41
ts:58118
$GPGSV,3,3,09,51,31,223,35*43
ts:58147
$GLGSV,1,1,03,76,12,026,29,77,24,086,27,82,30,191,35*50
ts:58221
$GNGLL,4228.21336,N,07503.88461,W,143626.00,A,A*6A
ts:58699
$GNRMC,143627.00,A,4228.21341,N,07503.88462,W,0.122,,231218,,,A*7B
ts:58773
$GNVTG,,T,,M,0.122,N,0.225,K,A*39
ts:58809
$GNGGA,143627.00,4228.21341,N,07503.88462,W,1,07,1.64,440.5,M,-34.1,M,,*77
ts:58888
$GNGSA,A,3,15,21,13,24,29,05,,,,,,,2.66,1.64,2.10*13
ts:58945
$GNGSA,A,3,82,,,,,,,,,,,,2.66,1.64,2.10*14
ts:58993
$GPGSV,3,1,09,05,15,091,36,10,,,28,13,41,050,31,15,79,055,38*44
ts:59058
$GPGSV,3,2,09,20,,,31,21,67,283,30,24,33,151,37,29,13,203,38*4D
ts:59126
$GPGSV,3,3,09,51,31,223,35*43
ts:59158
$GLGSV,1,1,04,76,12,026,30,77,24,086,27,78,08,134,,82,30,191,35*6E
ts:59229
$GNGLL,4228.21341,N,07503.88462,W,143627.00,A,A*68
ts:59688
$GNRMC,143628.00,A,4228.21344,N,07503.88464,W,0.247,,231218,,,A*77
ts:59782
$GNVTG,,T,,M,0.247,N,0.457,K,A*3A
ts:59799
$GNGGA,143628.00,4228.21344,N,07503.88464,W,1,07,1.64,440.4,M,-34.1,M,,*7A
ts:59881
$GNGSA,A,3,15,21,13,24,29,05,,,,,,,2.66,1.64,2.10*13
ts:59934
$GNGSA,A,3,82,,,,,,,,,,,,2.66,1.64,2.10*14
ts:59980
$GPGSV,3,1,09,05,15,091,36,10,,,28,13,41,050,30,15,79,055,38*45
ts:60048
$GPGSV,3,2,09,20,,,30,21,67,283,31,24,33,151,38,29,13,203,38*42
ts:60115
$GPGSV,3,3,09,51,31,223,35*43
ts:60147
$GLGSV,1,1,04,76,12,026,29,77,24,086,26,78,08,134,,82,30,191,35*67
ts:60219
$GNGLL,4228.21344,N,07503.88464,W,143628.00,A,A*64
ts:60694
$GNRMC,143629.00,A,4228.21343,N,07503.88460,W,0.388,,231218,,,A*77
ts:60768
$GNVTG,,T,,M,0.388,N,0.719,K,A*31
ts:60805
$GNGGA,143629.00,4228.21343,N,07503.88460,W,1,07,1.64,440.3,M,-34.1,M,,*7F
ts:60899
$GNGSA,A,3,15,21,13,24,29,05,,,,,,,2.66,1.64,2.10*13
ts:60940
$GNGSA,A,3,82,,,,,,,,,,,,2.66,1.64,2.10*14
ts:60986
$GPGSV,3,1,09,05,15,091,35,10,,,28,13,41,050,29,15,79,055,36*40
ts:61053
$GPGSV,3,2,09,20,,,30,21,67,283,30,24,33,151,36,29,13,203,37*42
ts:61121
$GPGSV,3,3,09,51,31,223,35*43
ts:61156
$GLGSV,1,1,04,76,12,026,29,77,24,086,25,78,08,134,,82,30,191,34*65
ts:61224
$GNGLL,4228.21343,N,07503.88460,W,143629.00,A,A*66
ts:61687
$GNRMC,143630.00,A,4228.21341,N,07503.88458,W,0.078,,231218,,,A*7A
ts:61762
$GNVTG,,T,,M,0.078,N,0.144,K,A*33
ts:61798
$GNGGA,143630.00,4228.21341,N,07503.88458,W,1,07,1.64,440.3,M,-34.1,M,,*7E
ts:61877
$GNGSA,A,3,15,21,13,24,29,05,,,,,,,2.66,1.64,2.10*13
ts:61951
$GNGSA,A,3,82,,,,,,,,,,,,2.66,1.64,2.10*14
ts:61979
$GPGSV,3,1,09,05,15,091,35,10,,,28,13,41,050,29,15,79,055,37*41
ts:62055
$GPGSV,3,2,09,20,,,30,21,67,283,30,24,33,151,37,29,13,203,37*43
ts:62114
$GPGSV,3,3,09,51,31,223,35*43
ts:62146
$GLGSV,1,1,04,76,12,026,28,77,24,086,25,78,08,134,,82,30,191,33*63
ts:62217
$GNGLL,4228.21341,N,07503.88458,W,143630.00,A,A*67
ts:62699
$GNRMC,143631.00,A,4228.21339,N,07503.88457,W,0.055,,231218,,,A*74
ts:62772
$GNVTG,,T,,M,0.055,N,0.102,K,A*3E
ts:62809
$GNGGA,143631.00,4228.21339,N,07503.88457,W,1,08,1.11,440.4,M,-34.1,M,,*75
ts:62891
$GNGSA,A,3,15,21,13,24,29,05,20,,,,,,2.08,1.11,1.75*1B
ts:62946
$GNGSA,A,3,82,,,,,,,,,,,,2.08,1.11,1.75*1E
ts:62992
$GPGSV,3,1,09,05,15,091,35,10,,,28,13,41,050,29,15,79,055,36*40
ts:63075
$GPGSV,3,2,09,20,39,294,30,21,67,282,30,24,33,151,37,29,13,203,37*77
ts:63134
$GPGSV,3,3,09,51,31,223,34*42
ts:63165
$GLGSV,1,1,04,76,12,026,28,77,24,086,26,78,08,134,,82,30,191,34*67
ts:63236
$GNGLL,4228.21339,N,07503.88457,W,143631.00,A,A*66
ts:63690
$GNRMC,143632.00,A,4228.21342,N,07503.88456,W,0.102,,231218,,,A*79
ts:63767
$GNVTG,,T,,M,0.102,N,0.190,K,A*36
ts:63800
$GNGGA,143632.00,4228.21342,N,07503.88456,W,1,08,1.11,440.3,M,-34.1,M,,*7C
ts:63879
$GNGSA,A,3,15,21,13,24,29,05,20,,,,,,2.08,1.11,1.75*1B
ts:63938
$GNGSA,A,3,82,,,,,,,,,,,,2.08,1.11,1.75*1E
ts:63984
$GPGSV,3,1,09,05,15,091,36,10,,,27,13,41,050,31,15,79,055,36*45
ts:64051
$GPGSV,3,2,09,20,39,294,29,21,67,282,31,24,33,151,38,29,13,203,38*7E
ts:64161
$GPGSV,3,3,09,51,31,223,34*42
ts:64168
$GLGSV,1,1,04,76,12,026,28,77,24,086,26,78,08,134,,82,30,191,35*66
ts:64230
$GNGLL,4228.21342,N,07503.88456,W,143632.00,A,A*68
ts:64697
$GNRMC,143633.00,A,4228.21343,N,07503.88453,W,0.034,,231218,,,A*78
ts:64770
$GNVTG,,T,,M,0.034,N,0.062,K,A*3E
ts:64808
$GNGGA,143633.00,4228.21343,N,07503.88453,W,1,08,1.11,440.2,M,-34.1,M,,*78
ts:64887
$GNGSA,A,3,15,21,13,24,29,05,20,,,,,,2.08,1.11,1.75*1B
ts:64945
$GNGSA,A,3,82,,,,,,,,,,,,2.08,1.11,1.75*1E
ts:64990
$GPGSV,3,1,09,05,15,091,36,10,,,28,13,41,050,30,15,79,055,37*4A
ts:65058
$GPGSV,3,2,09,20,39,294,29,21,67,282,31,24,33,151,37,29,13,203,38*71
ts:65134
$GPGSV,3,3,09,51,31,223,34*42
ts:65163
$GLGSV,1,1,04,76,12,026,28,77,24,086,26,78,08,134,,82,30,191,34*67
ts:65234
$GNGLL,4228.21343,N,07503.88453,W,143633.00,A,A*6D
ts:65690
$GNRMC,143634.00,A,4228.21343,N,07503.88451,W,0.040,,231218,,,A*7E
ts:65763
$GNVTG,,T,,M,0.040,N,0.074,K,A*3A
ts:65800
$GNGGA,143634.00,4228.21343,N,07503.88451,W,1,08,1.11,440.1,M,-34.1,M,,*7E
ts:65879
$GNGSA,A,3,15,21,13,24,29,05,20,,,,,,2.08,1.11,1.75*1B
ts:65940
$GNGSA,A,3,82,,,,,,,,,,,,2.08,1.11,1.75*1E
ts:65983
$GPGSV,3,1,09,05,15,091,35,10,,,29,13,41,050,30,15,79,055,37*48
ts:66052
$GPGSV,3,2,09,20,39,294,30,21,67,282,31,24,33,151,37,29,13,203,38*79
ts:66124
$GPGSV,3,3,09,51,31,223,35*43
ts:66156
$GLGSV,1,1,04,76,12,026,28,77,24,086,26,78,08,134,,82,30,191,34*67
ts:66227
$GNGLL,4228.21343,N,07503.88451,W,143634.00,A,A*68
ts:66697
$GNRMC,143635.00,A,4228.21343,N,07503.88445,W,0.028,,231218,,,A*74
ts:66771
$GNVTG,,T,,M,0.028,N,0.051,K,A*33
ts:66811
$GNGGA,143635.00,4228.21343,N,07503.88445,W,1,08,1.11,440.0,M,-34.1,M,,*7B
ts:66887
$GNGSA,A,3,15,21,13,24,29,05,20,,,,,,2.08,1.11,1.75*1B
ts:66945
$GNGSA,A,3,82,,,,,,,,,,,,2.08,1.11,1.75*1E
ts:66991
$GPGSV,3,1,09,05,15,091,35,10,,,29,13,41,050,29,15,79,055,37*40
ts:67059
$GPGSV,3,2,09,20,39,294,31,21,67,282,31,24,33,151,36,29,13,203,38*79
ts:67131
$GPGSV,3,3,09,51,31,223,35*43
ts:67164
$GLGSV,1,1,04,76,12,026,28,77,24,086,26,78,08,134,,82,30,191,34*67
ts:67234
$GNGLL,4228.21343,N,07503.88445,W,143635.00,A,A*6C
ts:67692
$GNRMC,143636.00,A,4228.21342,N,07503.88441,W,0.046,,231218,,,A*7A
ts:67766
$GNVTG,,T,,M,0.046,N,0.085,K,A*32
ts:67802
$GNGGA,143636.00,4228.21342,N,07503.88441,W,1,08,1.11,440.0,M,-34.1,M,,*7D
ts:67882
$GNGSA,A,3,15,21,13,24,29,05,20,,,,,,2.08,1.11,1.75*1B
ts:67955
$GNGSA,A,3,82,,,,,,,,,,,,2.08,1.11,1.75*1E
ts:67985
$GPGSV,3,1,09,05,15,091,35,10,,,29,13,41,050,30,15,79,055,36*49
ts:68053
$GPGSV,3,2,09,20,39,294,32,21,67,282,30,24,33,151,36,29,13,203,39*7A
ts:68129
$GPGSV,3,3,09,51,31,223,34*42
ts:68158
$GLGSV,1,1,04,76,12,026,29,77,24,086,27,78,08,134,,82,30,191,35*66
ts:68229
$GNGLL,4228.21342,N,07503.88441,W,143636.00,A,A*6A
ts:68699
$GNRMC,143637.00,A,4228.21346,N,07503.88441,W,0.045,,231218,,,A*7C
ts:68773
$GNVTG,,T,,M,0.045,N,0.083,K,A*37
ts:68831
$GNGGA,143637.00,4228.21346,N,07503.88441,W,1,08,1.11,439.9,M,-34.1,M,,*7F
ts:68890
$GNGSA,A,3,15,21,13,24,29,05,20,,,,,,2.08,1.11,1.75*1B
ts:68947
$GNGSA,A,3,82,,,,,,,,,,,,2.08,1.11,1.75*1E
ts:68996
$GPGSV,3,1,10,05,15,091,35,10,,,29,13,41,050,30,15,79,055,36*41
ts:69060
$GPGSV,3,2,10,20,39,294,31,21,67,282,30,24,33,151,36,27,10,324,*72
ts:69131
$GPGSV,3,3,10,29,13,203,38,51,31,223,34*79
ts:69177
$GLGSV,1,1,04,76,12,026,30,77,24,086,27,78,08,134,,82,30,191,36*6D
ts:69248
$GNGLL,4228.21346,N,07503.88441,W,143637.00,A,A*6F
ts:69693
$GNRMC,143638.00,A,4228.21348,N,07503.88440,W,0.115,,231218,,,A*78
ts:69767
$GNVTG,,T,,M,0.115,N,0.214,K,A*3F
ts:69803
$GNGGA,143638.00,4228.21348,N,07503.88440,W,1,08,1.12,439.8,M,-34.1,M,,*7D
ts:69885
$GNGSA,A,3,15,21,13,24,29,05,20,,,,,,2.08,1.12,1.75*18
ts:69940
$GNGSA,A,3,82,,,,,,,,,,,,2.08,1.12,1.75*1D
ts:69986
$GPGSV,3,1,10,05,15,091,35,10,,,29,13,41,050,30,15,79,055,37*40
ts:70054
$GPGSV,3,2,10,20,39,294,31,21,67,282,30,24,33,151,36,27,10,324,27*77
ts:70127
$GPGSV,3,3,10,29,13,203,38,51,31,223,35*78
ts:70188
$GLGSV,1,1,04,76,12,026,30,77,24,086,27,78,08,134,,82,30,191,35*6E
ts:70243
$GNGLL,4228.21348,N,07503.88440,W,143638.00,A,A*6F
ts:70711
$GNRMC,143639.00,A,4228.21352,N,07503.88443,W,0.043,,231218,,,A*73
ts:70785
$GNVTG,,T,,M,0.043,N,0.080,K,A*32
ts:70823
$GNGGA,143639.00,4228.21352,N,07503.88443,W,1,10,0.88,439.7,M,-34.1,M,,*70
ts:70901
$GNGSA,A,3,15,21,13,24,29,05,20,,,,,,1.60,0.88,1.33*15
ts:70959
$GNGSA,A,3,82,76,77,,,,,,,,,,1.60,0.88,1.33*11
ts:71009
$GPGSV,3,1,10,05,15,091,35,10,,,29,13,41,050,30,15,79,055,37*40
ts:71077
$GPGSV,3,2,10,20,39,294,31,21,67,282,30,24,33,151,37,27,10,324,28*79
ts:71150
$GPGSV,3,3,10,29,13,203,38,51,31,223,34*79
ts:71198
$GLGSV,1,1,04,76,12,026,31,77,24,086,27,78,08,134,,82,30,191,35*6F
ts:71267
$GNGLL,4228.21352,N,07503.88443,W,143639.00,A,A*66
ts:71693
$GNRMC,143640.00,A,4228.21358,N,07503.88446,W,0.029,,231218,,,A*7E
ts:71767
$GNVTG,,T,,M,0.029,N,0.054,K,A*37
ts:71803
$GNGGA,143640.00,4228.21358,N,07503.88446,W,1,10,0.88,439.6,M,-34.1,M,,*70
ts:71883
$GNGSA,A,3,15,21,13,24,29,05,20,,,,,,1.60,0.88,1.33*15
ts:71941
$GNGSA,A,3,82,76,77,,,,,,,,,,1.60,0.88,1.33*11
ts:71993
$GPGSV,3,1,10,05,15,091,34,10,,,29,13,41,050,29,15,79,055,37*49
ts:72058
$GPGSV,3,2,10,20,39,294,31,21,67,282,30,24,33,151,36,27,10,324,28*78
ts:72131
$GPGSV,3,3,10,29,13,203,38,51,31,223,35*78
ts:72177
$GLGSV,1,1,04,76,12,026,30,77,24,086,27,78,08,134,,82,30,191,35*6E
ts:72248
$GNGLL,4228.21358,N,07503.88446,W,143640.00,A,A*67
ts:72700
$GNRMC,143641.00,A,4228.21366,N,07503.88450,W,0.049,,231218,,,A*73
ts:72775
$GNVTG,,T,,M,0.049,N,0.091,K,A*38
ts:72825
$GNGGA,143641.00,4228.21366,N,07503.88450,W,1,10,0.88,439.3,M,-34.1,M,,*7E
ts:72893
$GNGSA,A,3,15,21,13,24,29,05,20,,,,,,1.60,0.88,1.33*15
ts:72948
$GNGSA,A,3,82,76,77,,,,,,,,,,1.60,0.88,1.33*11
ts:72998
$GPGSV,3,1,10,05,15,091,35,10,,,30,13,41,050,30,15,79,055,39*46
ts:73067
$GPGSV,3,2,10,20,39,294,31,21,67,282,30,24,33,151,38,27,10,324,28*76
ts:73159
$GPGSV,3,3,10,29,13,203,39,51,31,223,35*79
ts:73184
$GLGSV,1,1,04,76,12,026,29,77,24,086,27,78,08,134,,82,30,191,35*66
ts:73255
$GNGLL,4228.21366,N,07503.88450,W,143641.00,A,A*6C
ts:73692
$GNRMC,143642.00,A,4228.21374,N,07503.88455,W,0.056,,231218,,,A*78
ts:73767
$GNVTG,,T,,M,0.056,N,0.104,K,A*3B
ts:73802
$GNGGA,143642.00,4228.21374,N,07503.88455,W,1,10,0.88,439.1,M,-34.1,M,,*79
ts:73882
$GNGSA,A,3,15,21,13,24,29,05,20,,,,,,1.60,0.88,1.33*15
ts:73940
$GNGSA,A,3,82,76,77,,,,,,,,,,1.60,0.88,1.33*11
ts:73990
$GPGSV,3,1,10,05,15,091,35,10,,,31,13,41,050,30,15,79,055,39*47
ts:74058
$GPGSV,3,2,10,20,39,294,31,21,67,282,31,24,33,151,38,27,10,324,28*77
ts:74130
$GPGSV,3,3,10,29,13,203,39,51,31,223,35*79
ts:74179
$GLGSV,1,1,04,76,12,026,29,77,24,086,27,78,08,134,,82,30,191,35*66
ts:74248
$GNGLL,4228.21374,N,07503.88455,W,143642.00,A,A*69
ts:74700
$GNRMC,143643.00,A,4228.21383,N,07503.88453,W,0.016,,231218,,,A*73
ts:74773
$GNVTG,,T,,M,0.016,N,0.030,K,A*39
ts:74811
$GNGGA,143643.00,4228.21383,N,07503.88453,W,1,10,0.88,438.8,M,-34.1,M,,*7E
ts:74889
$GNGSA,A,3,15,21,13,24,29,05,20,,,,,,1.60,0.88,1.33*15
ts:74947
$GNGSA,A,3,82,76,77,,,,,,,,,,1.60,0.88,1.33*11
ts:75000
$GPGSV,3,1,10,05,15,091,38,10,,,30,13,41,050,30,15,79,055,38*4A
ts:75065
$GPGSV,3,2,10,20,39,294,31,21,67,282,34,24,33,151,40,27,10,324,27*72
ts:75138
$GPGSV,3,3,10,29,13,203,36,51,31,223,35*76
ts:75184
$GLGSV,1,1,04,76,12,026,29,77,24,086,26,78,08,134,,82,30,191,34*66
ts:75254
$GNGLL,4228.21383,N,07503.88453,W,143643.00,A,A*66
ts:75692
$GNRMC,143644.00,A,4228.21390,N,07503.88454,W,0.036,,231218,,,A*73
ts:75766
$GNVTG,,T,,M,0.036,N,0.066,K,A*38
ts:75803
$GNGGA,143644.00,4228.21390,N,07503.88454,W,1,10,0.88,438.6,M,-34.1,M,,*72
ts:75886
$GNGSA,A,3,15,21,13,24,29,05,20,,,,,,1.60,0.88,1.33*15
ts:75940
$GNGSA,A,3,82,76,77,,,,,,,,,,1.60,0.88,1.33*11
ts:75990
$GPGSV,3,1,10,05,15,091,37,10,,,29,13,41,050,30,15,79,055,38*4D
ts:76059
$GPGSV,3,2,10,20,39,294,30,21,67,282,31,24,33,151,40,27,10,324,27*76
ts:76130
$GPGSV,3,3,10,29,13,203,40,51,31,223,34*76
ts:76177
$GLGSV,1,1,04,76,12,026,29,77,24,086,27,78,08,134,,82,30,191,37*64
ts:76247
$GNGLL,4228.21390,N,07503.88454,W,143644.00,A,A*64
ts:76701
$GNRMC,143645.00,A,4228.21394,N,07503.88454,W,0.028,,231218,,,A*79
ts:76775
$GNVTG,,T,,M,0.028,N,0.052,K,A*30
ts:76813
$GNGGA,143645.00,4228.21394,N,07503.88454,W,1,10,0.88,438.4,M,-34.1,M,,*75
ts:76891
$GNGSA,A,3,15,21,13,24,29,05,20,,,,,,1.60,0.88,1.33*15
ts:76950
$GNGSA,A,3,82,76,77,,,,,,,,,,1.60,0.88,1.33*11
ts:77000
$GPGSV,3,1,10,05,15,091,38,10,,,29,13,41,050,32,15,79,055,38*40
ts:77067
$GPGSV,3,2,10,20,39,294,31,21,67,282,32,24,33,151,40,27,10,324,27*74
ts:77140
$GPGSV,3,3,10,29,13,203,37,51,31,223,35*77
ts:77189
$GLGSV,1,1,04,76,12,026,29,77,24,086,27,78,08,134,,82,30,191,34*67
ts:77256
$GNGLL,4228.21394,N,07503.88454,W,143645.00,A,A*61
ts:77692
$GNRMC,143646.00,A,4228.21395,N,07503.88454,W,0.033,,231218,,,A*71
ts:77766
$GNVTG,,T,,M,0.033,N,0.061,K,A*3A
ts:77823
$GNGGA,143646.00,4228.21395,N,07503.88454,W,1,10,0.88,438.3,M,-34.1,M,,*70
ts:77883
$GNGSA,A,3,15,21,13,24,29,05,20,,,,,,1.60,0.88,1.33*15
ts:77941
$GNGSA,A,3,82,76,77,,,,,,,,,,1.60,0.88,1.33*11
ts:77993
$GPGSV,3,1,10,05,15,091,38,10,,,28,13,41,050,33,15,79,055,39*41
ts:78058
$GPGSV,3,2,10,20,39,294,33,21,67,282,27,24,33,151,40,27,10,324,26*73
ts:78130
$GPGSV,3,3,10,29,13,203,35,51,31,223,35*75
ts:78176
$GLGSV,1,1,04,76,12,026,29,77,24,086,27,78,08,134,,82,30,191,34*67
ts:78247
$GNGLL,4228.21395,N,07503.88454,W,143646.00,A,A*63
ts:78703
$GNRMC,143647.00,A,4228.21395,N,07503.88451,W,0.090,,231218,,,A*7C
ts:78777
$GNVTG,,T,,M,0.090,N,0.168,K,A*3B
ts:78813
$GNGGA,143647.00,4228.21395,N,07503.88451,W,1,10,0.88,438.2,M,-34.1,M,,*75
ts:78895
$GNGSA,A,3,15,21,13,24,29,05,20,,,,,,1.60,0.88,1.33*15
ts:78951
$GNGSA,A,3,82,76,77,,,,,,,,,,1.60,0.88,1.33*11
ts:79000
$GPGSV,3,1,10,05,15,091,38,10,,,27,13,41,050,33,15,79,055,39*4E
ts:79068
$GPGSV,3,2,10,20,39,294,32,21,67,282,28,24,33,151,40,27,10,324,25*7E
ts:79141
$GPGSV,3,3,10,29,13,203,34,51,31,223,34*75
ts:79187
$GLGSV,1,1,04,76,12,026,28,77,24,086,27,78,08,134,,82,30,191,34*66
ts:79258
$GNGLL,4228.21395,N,07503.88451,W,143647.00,A,A*67
ts:79693
$GNRMC,143648.00,A,4228.21394,N,07503.88446,W,0.094,,231218,,,A*70
ts:79767
$GNVTG,,T,,M,0.094,N,0.174,K,A*32
ts:79803
$GNGGA,143648.00,4228.21394,N,07503.88446,W,1,10,0.88,438.2,M,-34.1,M,,*7D
ts:79883
$GNGSA,A,3,15,21,13,24,29,05,20,,,,,,1.59,0.88,1.33*1F
ts:79940
$GNGSA,A,3,82,76,77,,,,,,,,,,1.59,0.88,1.33*1B
ts:79990
$GPGSV,3,1,10,05,15,091,38,10,,,27,13,41,050,33,15,79,055,38*4F
ts:80059
$GPGSV,3,2,10,20,39,294,33,21,67,282,30,24,33,151,40,27,10,324,25*76
ts:80131
$GPGSV,3,3,10,29,13,203,33,51,31,223,34*72
ts:80181
$GLGSV,1,1,04,76,12,026,29,77,24,086,28,78,08,134,,82,30,191,34*68
ts:80248
$GNGLL,4228.21394,N,07503.88446,W,143648.00,A,A*6F
ts:80703
$GNRMC,143649.00,A,4228.21392,N,07503.88444,W,0.078,,231218,,,A*77
ts:80777
$GNVTG,,T,,M,0.078,N,0.144,K,A*33
ts:80815
$GNGGA,143649.00,4228.21392,N,07503.88444,W,1,11,0.75,438.2,M,-34.1,M,,*7B
ts:80893
$GNGSA,A,3,15,21,13,24,29,05,10,20,,,,,1.39,0.75,1.17*1C
ts:80953
$GNGSA,A,3,82,76,77,,,,,,,,,,1.39,0.75,1.17*19
ts:81006
$GPGSV,3,1,10,05,15,091,38,10,15,283,27,13,41,050,33,15,79,055,39*73
ts:81077
$GPGSV,3,2,10,20,39,294,33,21,67,282,31,24,33,151,41,27,10,324,25*76
ts:81149
$GPGSV,3,3,10,29,13,203,33,51,31,223,34*72
ts:81196
$GLGSV,1,1,04,76,12,026,29,77,24,086,27,78,08,134,,82,30,191,34*67
ts:81265
$GNGLL,4228.21392,N,07503.88444,W,143649.00,A,A*6A
ts:81703
$GNRMC,143650.00,A,4228.21392,N,07503.88444,W,0.069,,231218,,,D*7A
ts:81777
$GNVTG,,T,,M,0.069,N,0.127,K,D*33
ts:81813
$GNGGA,143650.00,4228.21392,N,07503.88444,W,2,11,0.75,438.3,M,-34.1,M,,0000*71
ts:81900
$GNGSA,A,3,15,21,13,24,29,05,10,20,,,,,1.39,0.75,1.17*1C
ts:81958
$GNGSA,A,3,82,76,77,,,,,,,,,,1.39,0.75,1.17*19
ts:82007
$GPGSV,3,1,10,05,15,091,39,10,15,283,27,13,41,050,33,15,79,055,38*73
ts:82080
$GPGSV,3,2,10,20,39,294,33,21,67,282,30,24,33,151,41,27,10,324,24*76
ts:82188
$GPGSV,3,3,10,29,13,203,33,51,31,223,34*72
ts:82199
$GLGSV,1,1,04,76,12,026,28,77,24,086,26,78,08,134,,82,30,191,33*60
ts:82270
$GNGLL,4228.21392,N,07503.88444,W,143650.00,A,D*67
ts:82704
$GNRMC,143651.00,A,4228.21393,N,07503.88443,W,0.015,,231218,,,D*76
ts:82779
$GNVTG,,T,,M,0.015,N,0.028,K,D*36
ts:82815
$GNGGA,143651.00,4228.21393,N,07503.88443,W,2,11,0.75,438.3,M,-34.1,M,,0000*76
ts:82897
$GNGSA,A,3,15,21,13,24,29,05,10,20,,,,,1.39,0.75,1.17*1C
ts:82958
$GNGSA,A,3,82,76,77,,,,,,,,,,1.39,0.75,1.17*19
ts:83008
$GPGSV,3,1,10,05,15,091,37,10,15,283,27,13,41,050,33,15,79,055,37*72
ts:83081
$GPGSV,3,2,10,20,39,294,33,21,67,282,30,24,33,151,39,27,10,324,23*7E
ts:83156
$GPGSV,3,3,10,29,13,203,33,51,31,223,34*72
ts:83199
$GLGSV,1,1,04,76,12,026,28,77,24,086,26,78,08,134,,82,30,191,33*60
ts:83270
$GNGLL,4228.21393,N,07503.88443,W,143651.00,A,D*60
ts:83703
$GNRMC,143652.00,A,4228.21393,N,07503.88442,W,0.070,,231218,,,D*77
ts:83778
$GNVTG,,T,,M,0.070,N,0.129,K,D*35
ts:83813
$GNGGA,143652.00,4228.21393,N,07503.88442,W,2,11,0.75,438.3,M,-34.1,M,,0000*74
ts:83896
$GNGSA,A,3,15,21,13,24,29,05,10,20,,,,,1.39,0.75,1.17*1C
ts:83957
$GNGSA,A,3,82,76,77,,,,,,,,,,1.39,0.75,1.17*19
ts:84010
$GPGSV,3,1,10,05,15,091,37,10,15,283,27,13,41,050,33,15,79,055,38*7D
ts:84080
$GPGSV,3,2,10,20,39,294,33,21,67,282,30,24,33,151,39,27,10,324,22*7F
ts:84153
$GPGSV,3,3,10,29,13,203,33,51,31,223,34*72
ts:84198
$GLGSV,1,1,04,76,12,026,28,77,24,086,26,78,08,134,,82,30,191,33*60
ts:84269
$GNGLL,4228.21393,N,07503.88442,W,143652.00,A,D*62
ts:84707
$GNRMC,143653.00,A,4228.21394,N,07503.88440,W,0.014,,231218,,,D*71
ts:84796
$GNVTG,,T,,M,0.014,N,0.026,K,D*39
ts:84820
$GNGGA,143653.00,4228.21394,N,07503.88440,W,2,11,0.75,438.3,M,-34.1,M,,0000*70
ts:84900
$GNGSA,A,3,15,21,13,24,29,05,10,20,,,,,1.39,0.75,1.17*1C
ts:84961
$GNGSA,A,3,82,76,77,,,,,,,,,,1.39,0.75,1.17*19
ts:85011
$GPGSV,3,1,10,05,15,091,38,10,15,283,28,13,41,050,34,15,79,055,38*7A
ts:85084
$GPGSV,3,2,10,20,39,294,34,21,67,282,31,24,33,151,41,27,10,324,22*76
ts:85157
$GPGSV,3,3,10,29,13,203,34,51,31,223,34*75
ts:85202
$GLGSV,1,1,04,76,12,026,28,77,24,086,26,78,08,134,,82,29,191,33*68
ts:85273
$GNGLL,4228.21394,N,07503.88440,W,143653.00,A,D*66
ts:85705
$GNRMC,143654.00,A,4228.21397,N,07503.88436,W,0.035,,231218,,,D*77
ts:85779
$GNVTG,,T,,M,0.035,N,0.065,K,D*3D
ts:85816
$GNGGA,143654.00,4228.21397,N,07503.88436,W,2,11,0.75,438.3,M,-34.1,M,,0000*75
ts:85899
$GNGSA,A,3,15,21,13,24,29,05,10,20,,,,,1.39,0.75,1.17*1C
ts:85960
$GNGSA,A,3,82,76,77,,,,,,,,,,1.39,0.75,1.17*19
ts:86009
$GPGSV,3,1,10,05,15,091,37,10,15,283,27,13,41,050,32,15,79,055,37*73
ts:86082
$GPGSV,3,2,10,20,39,294,33,21,67,282,30,24,33,151,38,27,10,324,21*7D
ts:86158
$GPGSV,3,3,10,29,13,203,33,51,31,223,33*75
ts:86201
$GLGSV,1,1,04,76,12,026,29,77,24,086,26,78,08,134,,82,29,191,35*6F
ts:86272
$GNGLL,4228.21397,N,07503.88436,W,143654.00,A,D*63
ts:86705
$GNRMC,143655.00,A,4228.21402,N,07503.88434,W,0.037,,231218,,,D*7D
ts:86778
$GNVTG,,T,,M,0.037,N,0.068,K,D*32
ts:86837
$GNGGA,143655.00,4228.21402,N,07503.88434,W,2,11,0.75,438.3,M,-34.1,M,,0000*7D
ts:86898
$GNGSA,A,3,15,21,13,24,29,05,10,20,,,,,1.39,0.75,1.17*1C
ts:86962
$GNGSA,A,3,82,76,77,,,,,,,,,,1.39,0.75,1.17*19
ts:87009
$GPGSV,3,1,10,05,15,091,35,10,15,283,27,13,41,050,32,15,79,055,35*73
ts:87081
$GPGSV,3,2,10,20,39,294,29,21,67,282,30,24,33,151,37,27,10,324,23*7B
ts:87154
$GPGSV,3,3,10,29,13,203,36,51,31,223,33*70
ts:87201
$GLGSV,1,1,04,76,12,026,28,77,24,086,26,78,08,134,,82,29,191,36*6D
ts:87271
$GNGLL,4228.21402,N,07503.88434,W,143655.00,A,D*6B
ts:87703
$GNRMC,143656.00,A,4228.21406,N,07503.88425,W,0.010,,231218,,,D*7F
ts:87776
$GNVTG,,T,,M,0.010,N,0.019,K,D*31
ts:87816
$GNGGA,143656.00,4228.21406,N,07503.88425,W,2,11,0.75,438.3,M,-34.1,M,,0000*7A
ts:87897
$GNGSA,A,3,15,21,13,24,29,05,10,20,,,,,1.39,0.75,1.17*1C
ts:87957
$GNGSA,A,3,82,76,77,,,,,,,,,,1.39,0.75,1.17*19
ts:88007
$GPGSV,3,1,10,05,15,091,35,10,15,283,27,13,41,050,33,15,79,055,37*70
ts:88079
$GPGSV,3,2,10,20,39,294,31,21,67,282,30,24,33,151,37,27,10,324,26*77
ts:88152
$GPGSV,3,3,10,29,13,203,40,51,31,223,35*77
ts:88198
$GLGSV,1,1,04,76,12,026,28,77,24,086,27,78,08,134,,82,29,191,36*6C
ts:88272
$GNGLL,4228.21406,N,07503.88425,W,143656.00,A,D*6C
ts:88707
$GNRMC,143657.00,A,4228.21407,N,07503.88411,W,0.046,,231218,,,D*7B
ts:88781
$GNVTG,,T,,M,0.046,N,0.085,K,D*37
ts:88818
$GNGGA,143657.00,4228.21407,N,07503.88411,W,2,11,0.75,438.4,M,-34.1,M,,0000*7A
ts:88901
$GNGSA,A,3,15,21,13,24,29,05,10,20,,,,,1.39,0.75,1.17*1C
ts:88983
$GNGSA,A,3,82,76,77,,,,,,,,,,1.39,0.75,1.17*19
ts:89011
$GPGSV,3,1,10,05,15,091,36,10,15,283,28,13,41,050,34,15,79,055,38*74
ts:89084
$GPGSV,3,2,10,20,39,294,31,21,67,282,31,24,33,151,38,27,10,324,27*78
ts:89160
$GPGSV,3,3,10,29,13,203,40,51,31,223,35*77
ts:89203
$GLGSV,2,1,05,76,12,026,28,77,24,086,26,78,08,134,,82,29,191,35*6C
ts:89274
$GLGSV,2,2,05,83,60,257,*5D
ts:89304
$GNGLL,4228.21407,N,07503.88411,W,143657.00,A,D*6B
ts:89707
$GNRMC,143658.00,A,4228.21407,N,07503.88401,W,0.008,,231218,,,D*7F
ts:89780
$GNVTG,,T,,M,0.008,N,0.015,K,D*34
ts:89818
$GNGGA,143658.00,4228.21407,N,07503.88401,W,2,11,0.75,438.5,M,-34.1,M,,0000*75
ts:89903
$GNGSA,A,3,15,21,13,24,29,05,10,20,,,,,1.39,0.75,1.17*1C
ts:89961
$GNGSA,A,3,82,76,77,,,,,,,,,,1.39,0.75,1.17*19
ts:90011
$GPGSV,3,1,10,05,15,091,37,10,15,283,28,13,41,050,34,15,79,055,38*75
ts:90083
$GPGSV,3,2,10,20,39,294,30,21,67,282,32,24,33,151,38,27,10,324,26*7B
ts:90156
$GPGSV,3,3,10,29,13,203,40,51,31,223,36*74
ts:90203
$GLGSV,2,1,05,76,12,026,27,77,24,086,26,78,08,134,,82,29,191,34*62
ts:90273
$GLGSV,2,2,05,83,60,257,*5D
ts:90303
$GNGLL,4228.21407,N,07503.88401,W,143658.00,A,D*65
ts:90707
$GNRMC,143659.00,A,4228.21411,N,07503.88396,W,0.026,,231218,,,D*7C
ts:90781
$GNVTG,,T,,M,0.026,N,0.048,K,D*30
ts:90817
$GNGGA,143659.00,4228.21411,N,07503.88396,W,2,11,0.75,438.5,M,-34.1,M,,0000*7A
ts:90900
$GNGSA,A,3,15,21,13,24,29,05,10,20,,,,,1.39,0.75,1.17*1C
ts:90982
$GNGSA,A,3,82,76,77,,,,,,,,,,1.39,0.75,1.17*19
ts:91010
$GPGSV,3,1,10,05,15,091,37,10,15,283,28,13,41,050,34,15,79,055,39*74
ts:91083
$GPGSV,3,2,10,20,39,294,30,21,67,282,32,24,33,151,40,27,10,324,25*77
ts:91159
$GPGSV,3,3,10,29,13,203,41,51,31,223,38*7B
ts:91202
$GLGSV,2,1,05,76,12,026,28,77,24,086,26,78,08,134,,82,29,191,35*6C
ts:91273
$GLGSV,2,2,05,83,60,257,*5D
ts:91303
$GNGLL,4228.21411,N,07503.88396,W,143659.00,A,D*6A
ts:91707
$GNRMC,143700.00,A,4228.21411,N,07503.88388,W,0.021,,231218,,,D*79
ts:91781
$GNVTG,,T,,M,0.021,N,0.039,K,D*31
ts:91817
$GNGGA,143700.00,4228.21411,N,07503.88388,W,2,11,0.75,438.5,M,-34.1,M,,0000*78
ts:91900
$GNGSA,A,3,15,21,13,24,29,05,10,20,,,,,1.39,0.75,1.17*1C
ts:91964
$GNGSA,A,3,82,76,77,,,,,,,,,,1.39,0.75,1.17*19
ts:92012
$GPGSV,3,1,10,05,15,091,37,10,15,283,27,13,41,050,33,15,79,055,39*7C
ts:92084
$GPGSV,3,2,10,20,39,294,30,21,67,282,32,24,33,151,38,27,10,324,24*79
ts:92157
$GPGSV,3,3,10,29,13,203,40,51,31,223,37*75
ts:92203
$GLGSV,2,1,05,76,12,026,28,77,24,086,26,78,08,134,,82,29,191,35*6C
ts:92273
$GLGSV,2,2,05,83,60,257,*5D
ts:92303
$GNGLL,4228.21411,N,07503.88388,W,143700.00,A,D*68
ts:92711
$GNRMC,143701.00,A,4228.21412,N,07503.88382,W,0.008,,231218,,,D*7A
ts:92787
$GNVTG,,T,,M,0.008,N,0.015,K,D*34
ts:92821
$GNGGA,143701.00,4228.21412,N,07503.88382,W,2,11,0.75,438.5,M,-34.1,M,,0000*70
ts:92904
$GNGSA,A,3,15,21,13,24,29,05,10,20,,,,,1.39,0.75,1.17*1C
ts:92986
$GNGSA,A,3,82,76,77,,,,,,,,,,1.39,0.75,1.17*19
ts:93015
$GPGSV,3,1,10,05,15,091,35,10,15,283,27,13,41,050,32,15,79,055,37*71
ts:93087
$GPGSV,3,2,10,20,39,294,30,21,67,282,31,24,33,151,37,27,10,324,23*72
ts:93160
$GPGSV,3,3,10,29,13,203,38,51,31,223,35*78
ts:93206
$GLGSV,2,1,06,76,12,026,28,77,24,086,26,78,08,134,,82,29,191,35*6F
ts:93280
$GLGSV,2,2,06,83,60,257,,84,25,328,*6C
ts:93319
$GNGLL,4228.21412,N,07503.88382,W,143701.00,A,D*60
ts:93709
$GNRMC,143702.00,A,4228.21414,N,07503.88379,W,0.050,,231218,,,D*76
ts:93783
$GNVTG,,T,,M,0.050,N,0.092,K,D*36
ts:93819
$GNGGA,143702.00,4228.21414,N,07503.88379,W,2,11,0.88,438.5,M,-34.1,M,,0000*73
ts:93902
$GNGSA,A,3,15,21,13,24,29,05,10,20,,,,,1.59,0.88,1.33*1E
ts:93963
$GNGSA,A,3,82,76,77,,,,,,,,,,1.59,0.88,1.33*1B
ts:94016
$GPGSV,3,1,10,05,15,091,35,10,15,283,26,13,41,050,32,15,79,055,37*70
ts:94085
$GPGSV,3,2,10,20,39,294,30,21,67,282,31,24,33,151,37,27,10,324,23*72
ts:94158
$GPGSV,3,3,10,29,13,203,38,51,31,223,35*78
ts:94204
$GLGSV,2,1,06,76,12,026,28,77,24,086,26,78,08,134,,82,29,191,35*6F
ts:94275
$GLGSV,2,2,06,83,60,257,,84,25,328,*6C
ts:94317
$GNGLL,4228.21414,N,07503.88379,W,143702.00,A,D*61
ts:94710
$GNRMC,143703.00,A,4228.21419,N,07503.88374,W,0.045,,231218,,,D*73
ts:94784
$GNVTG,,T,,M,0.045,N,0.083,K,D*32
ts:94823
$GNGGA,143703.00,4228.21419,N,07503.88374,W,2,11,0.75,438.4,M,-34.1,M,,0000*71
ts:94903
$GNGSA,A,3,15,21,13,24,29,05,10,20,,,,,1.39,0.75,1.17*1C
ts:94985
$GNGSA,A,3,82,76,77,,,,,,,,,,1.39,0.75,1.17*19
ts:95014
$GPGSV,3,1,10,05,15,091,36,10,15,283,26,13,41,050,32,15,79,055,38*7C
ts:95086
$GPGSV,3,2,10,20,39,294,31,21,67,282,32,24,33,151,39,27,10,324,23*7E
ts:95159
$GPGSV,3,3,10,29,13,203,39,51,31,223,36*7A
ts:95206
$GLGSV,2,1,06,76,12,026,28,77,24,086,27,78,08,134,,82,29,191,37*6C
ts:95280
$GLGSV,2,2,06,83,60,257,,84,25,328,*6C
ts:95318
$GNGLL,4228.21419,N,07503.88374,W,143703.00,A,D*60
ts:95710
$GNRMC,143704.00,A,4228.21419,N,07503.88368,W,0.013,,231218,,,D*7A
ts:95784
$GNVTG,,T,,M,0.013,N,0.024,K,D*3C
ts:95820
$GNGGA,143704.00,4228.21419,N,07503.88368,W,2,11,0.75,438.4,M,-34.1,M,,0000*7B
ts:95903
$GNGSA,A,3,15,21,13,24,29,05,10,20,,,,,1.39,0.75,1.17*1C
ts:95965
$GNGSA,A,3,82,76,77,,,,,,,,,,1.39,0.75,1.17*19
ts:96015
$GPGSV,3,1,10,05,15,091,34,10,15,283,26,13,41,050,31,15,79,055,36*73
ts:96090
$GPGSV,3,2,10,20,39,294,31,21,67,282,31,24,33,151,36,27,10,324,23*72
ts:96161
$GPGSV,3,3,10,29,13,203,38,51,31,223,34*79
ts:96205
$GLGSV,2,1,06,76,12,026,29,77,24,086,27,78,08,134,,82,29,191,35*6F
ts:96276
$GLGSV,2,2,06,83,60,257,,84,25,328,*6C
ts:96318
$GNGLL,4228.21419,N,07503.88368,W,143704.00,A,D*6A
ts:96709
$GNRMC,143705.00,A,4228.21420,N,07503.88363,W,0.027,,231218,,,D*7D
ts:96783
$GNVTG,,T,,M,0.027,N,0.050,K,D*38
ts:96819
$GNGGA,143705.00,4228.21420,N,07503.88363,W,2,11,0.75,438.5,M,-34.1,M,,0000*7A
ts:96906
$GNGSA,A,3,15,21,13,24,29,05,10,20,,,,,1.39,0.75,1.17*1C
ts:96985
$GNGSA,A,3,82,76,77,,,,,,,,,,1.39,0.75,1.17*19
ts:97013
$GPGSV,3,1,10,05,15,091,34,10,15,283,25,13,41,050,31,15,79,055,37*71
ts:97086
$GPGSV,3,2,10,20,39,294,30,21,67,282,31,24,33,151,37,27,10,324,23*72
ts:97159
$GPGSV,3,3,10,29,13,203,38,51,31,223,34*79
ts:97205
$GLGSV,2,1,06,76,12,026,29,77,24,086,27,78,08,134,,82,29,191,35*6F
ts:97276
$GLGSV,2,2,06,83,60,257,,84,25,328,*6C
ts:97320
$GNGLL,4228.21420,N,07503.88363,W,143705.00,A,D*6A
ts:97709
$GNRMC,143706.00,A,4228.21423,N,07503.88362,W,0.016,,231218,,,D*7E
ts:97783
$GNVTG,,T,,M,0.016,N,0.029,K,D*34
ts:97819
$GNGGA,143706.00,4228.21423,N,07503.88362,W,2,11,0.75,438.4,M,-34.1,M,,0000*7A
ts:97902
$GNGSA,A,3,15,21,13,24,29,05,10,20,,,,,1.39,0.75,1.17*1C
ts:97963
$GNGSA,A,3,82,76,77,,,,,,,,,,1.39,0.75,1.17*19
ts:98013
$GPGSV,3,1,10,05,15,091,37,10,15,283,25,13,41,050,34,15,79,055,38*78
ts:98086
$GPGSV,3,2,10,20,39,294,30,21,67,282,31,24,33,151,39,27,10,324,23*7C
ts:98161
$GPGSV,3,3,10,29,13,203,39,51,31,223,35*79
ts:98204
$GLGSV,2,1,06,76,12,026,29,77,24,086,27,78,08,134,,82,29,191,35*6F
ts:98275
$GLGSV,2,2,06,83,60,257,,84,25,328,*6C
ts:98317
$GNGLL,4228.21423,N,07503.88362,W,143706.00,A,D*6B
ts:98709
$GNRMC,143707.00,A,4228.21424,N,07503.88358,W,0.031,,231218,,,D*74
ts:98783
$GNVTG,,T,,M,0.031,N,0.057,K,D*38
ts:98820
$GNGGA,143707.00,4228.21424,N,07503.88358,W,2,11,0.75,438.5,M,-34.1,M,,0000*74
ts:98906
$GNGSA,A,3,15,21,13,24,29,05,10,20,,,,,1.39,0.75,1.17*1C
ts:98984
$GNGSA,A,3,82,76,77,,,,,,,,,,1.39,0.75,1.17*19
ts:99013
$GPGSV,3,1,10,05,15,091,36,10,15,283,25,13,41,050,32,15,79,055,37*70
ts:99086
$GPGSV,3,2,10,20,39,294,30,21,67,282,31,24,33,151,37,27,10,324,23*72
ts:99159
$GPGSV,3,3,10,29,13,203,37,51,31,223,35*77
ts:99205
$GLGSV,2,1,06,76,12,026,29,77,24,086,26,78,08,134,,82,29,191,35*6E
ts:99276
$GLGSV,2,2,06,83,60,257,,84,25,328,*6C
ts:99317
$GNGLL,4228.21424,N,07503.88358,W,143707.00,A,D*64
ts:99708
$GNRMC,143708.00,A,4228.21424,N,07503.88355,W,0.008,,231218,,,D*7C
ts:99782
$GNVTG,,T,,M,0.008,N,0.015,K,D*34
ts:99819
$GNGGA,143708.00,4228.21424,N,07503.88355,W,2,11,0.75,438.5,M,-34.1,M,,0000*76
ts:99902
$GNGSA,A,3,15,21,13,24,29,05,10,20,,,,,1.39,0.75,1.17*1C
ts:99963
$GNGSA,A,3,82,76,77,,,,,,,,,,1.39,0.75,1.17*19
ts:100012
$GPGSV,3,1,10,05,15,091,35,10,15,283,25,13,41,050,32,15,79,055,37*73
ts:100085
$GPGSV,3,2,10,20,39,294,30,21,67,282,31,24,33,151,37,27,10,324,23*72
ts:100175
$GPGSV,3,3,10,29,13,203,37,51,31,223,34*76
ts:100204
$GLGSV,2,1,06,76,12,026,30,77,24,086,26,78,08,134,,82,29,191,35*66
ts:100275
$GLGSV,2,2,06,83,60,257,,84,25,328,*6C
ts:100316
$GNGLL,4228.21424,N,07503.88355,W,143708.00,A,D*66
ts:100706
$GNRMC,143709.00,A,4228.21426,N,07503.88353,W,0.067,,231218,,,D*70
ts:100781
$GNVTG,,T,,M,0.067,N,0.125,K,D*3F
ts:100816
$GNGGA,143709.00,4228.21426,N,07503.88353,W,2,11,0.75,438.5,M,-34.1,M,,0000*73
ts:100900
$GNGSA,A,3,15,21,13,24,29,05,10,20,,,,,1.39,0.75,1.17*1C
ts:100984
